$GNGGA,120001.000000,0000.0000,N,00000.0000,E,0,00,0.0,0.0,M,0.0,M,,0000*41
$GNGLL,0000.0000,N,00000.0000,E,120001.000000,V,N*6D
$GNGSA,A,1,,,,,,,,,,,,,0.0,0.0,0.0,1*33
$GNRMC,120001.000000,V,0000.0000,N,00000.0000,E,0.000,000.0,280606,,,N*50
$GNVTG,000.0,T,,M,0.000,N,0.000,K,N*1C
$GNZDA,120001.000000,28,06,2006,00,00*72
$GNGGA,120002.000000,0000.0000,N,00000.0000,E,0,00,0.0,0.0,M,0.0,M,,0000*42
$GNGLL,0000.0000,N,00000.0000,E,120002.000000,V,N*6E
$GNGSA,A,1,,,,,,,,,,,,,0.0,0.0,0.0,1*33
$GNRMC,120002.000000,V,0000.0000,N,00000.0000,E,0.000,000.0,280606,,,N*53
$GNVTG,000.0,T,,M,0.000,N,0.000,K,N*1C
$GNZDA,120002.000000,28,06,2006,00,00*71
$GNGGA,120003.000000,0000.0000,N,00000.0000,E,0,00,0.0,0.0,M,0.0,M,,0000*43
$GNGLL,0000.0000,N,00000.0000,E,120003.000000,V,N*6F
$GNGSA,A,1,,,,,,,,,,,,,0.0,0.0,0.0,1*33
$GNRMC,120003.000000,V,0000.0000,N,00000.0000,E,0.000,000.0,280606,,,N*52
$GNVTG,000.0,T,,M,0.000,N,0.000,K,N*1C
$GNZDA,120003.000000,28,06,2006,00,00*70
$GNGGA,120004.000000,0000.0000,N,00000.0000,E,0,00,0.0,0.0,M,0.0,M,,0000*44
$GNGLL,0000.0000,N,00000.0000,E,120004.000000,V,N*68
$GNGSA,A,1,,,,,,,,,,,,,0.0,0.0,0.0,1*33
$GNRMC,120004.000000,V,0000.0000,N,00000.0000,E,0.000,000.0,280606,,,N*55
$GNVTG,000.0,T,,M,0.000,N,0.000,K,N*1C
$GNZDA,120004.000000,28,06,2006,00,00*77
$GNGGA,120005.000000,0000.0000,N,00000.0000,E,0,00,0.0,0.0,M,0.0,M,,0000*45
$GNGLL,0000.0000,N,00000.0000,E,120005.000000,V,N*69
$GNGSA,A,1,,,,,,,,,,,,,0.0,0.0,0.0,1*33
$GPGSV,1,1,01,05,00,000,46,1*52
$GNRMC,120005.000000,V,0000.0000,N,00000.0000,E,0.000,000.0,280606,,,N*54
$GNVTG,000.0,T,,M,0.000,N,0.000,K,N*1C
$GNZDA,120005.000000,28,06,2006,00,00*76
$GNGGA,120006.000000,0000.0000,N,00000.0000,E,0,00,0.0,0.0,M,0.0,M,,0000*46
$GNGLL,0000.0000,N,00000.0000,E,120006.000000,V,N*6A
$GNGSA,A,1,,,,,,,,,,,,,0.0,0.0,0.0,1*33
$GNRMC,120006.000000,V,0000.0000,N,00000.0000,E,0.000,000.0,280606,,,N*57
$GNVTG,000.0,T,,M,0.000,N,0.000,K,N*1C
$GNZDA,120006.000000,28,06,2006,00,00*75
$GNGGA,120007.000000,0000.0000,N,00000.0000,E,0,00,0.0,0.0,M,0.0,M,,0000*47
$GNGLL,0000.0000,N,00000.0000,E,120007.000000,V,N*6B
$GNGSA,A,1,,,,,,,,,,,,,0.0,0.0,0.0,1*33
$GNRMC,120007.000000,V,0000.0000,N,00000.0000,E,0.000,000.0,280606,,,N*56
$GNVTG,000.0,T,,M,0.000,N,0.000,K,N*1C
$GNZDA,120007.000000,28,06,2006,00,00*74
$GNGGA,120008.000000,0000.0000,N,00000.0000,E,0,00,0.0,0.0,M,0.0,M,,0000*48
$GNGLL,0000.0000,N,00000.0000,E,120008.000000,V,N*64
$GNGSA,A,1,,,,,,,,,,,,,0.0,0.0,0.0,1*33
$GPGSV,1,1,03,10,00,000,43,05,00,000,46,12,00,000,41,1*50
$GNRMC,120008.000000,V,0000.0000,N,00000.0000,E,0.000,000.0,280606,,,N*59
$GNVTG,000.0,T,,M,0.000,N,0.000,K,N*1C
$GNZDA,120008.000000,28,06,2006,00,00*7B
$GNGGA,120009.000000,0000.0000,N,00000.0000,E,0,00,0.0,0.0,M,0.0,M,,0000*49
$GNGLL,0000.0000,N,00000.0000,E,120009.000000,V,N*65
$GNGSA,A,1,,,,,,,,,,,,,0.0,0.0,0.0,1*33
$GNRMC,120009.000000,V,0000.0000,N,00000.0000,E,0.000,000.0,280606,,,N*58
$GNVTG,000.0,T,,M,0.000,N,0.000,K,N*1C
$GNZDA,120009.000000,28,06,2006,00,00*7A
$GNGGA,120010.000000,0000.0000,N,00000.0000,E,0,00,0.0,0.0,M,0.0,M,,0000*41
$GNGLL,0000.0000,N,00000.0000,E,120010.000000,V,N*6D
$GNGSA,A,1,,,,,,,,,,,,,0.0,0.0,0.0,1*33
$GNRMC,120010.000000,V,0000.0000,N,00000.0000,E,0.000,000.0,280606,,,N*50
$GNVTG,000.0,T,,M,0.000,N,0.000,K,N*1C
$GNZDA,120010.000000,28,06,2006,00,00*72
$GNGGA,120011.000000,0000.0000,N,00000.0000,E,0,00,0.0,0.0,M,0.0,M,,0000*40
$GNGLL,0000.0000,N,00000.0000,E,120011.000000,V,N*6C
$GNGSA,A,1,,,,,,,,,,,,,0.0,0.0,0.0,1*33
$GPGSV,2,1,05,10,00,000,43,05,00,000,46,12,00,000,41,13,00,000,46,1*65
$GPGSV,2,2,05,14,00,000,41,1*51
$GNRMC,120011.000000,V,0000.0000,N,00000.0000,E,0.000,000.0,280606,,,N*51
$GNVTG,000.0,T,,M,0.000,N,0.000,K,N*1C
$GNZDA,120011.000000,28,06,2006,00,00*73
$GNGGA,120012.000000,0000.0000,N,00000.0000,E,0,00,0.0,0.0,M,0.0,M,,0000*43
$GNGLL,0000.0000,N,00000.0000,E,120012.000000,V,N*6F
$GNGSA,A,1,,,,,,,,,,,,,0.0,0.0,0.0,1*33
$GNRMC,120012.000000,V,0000.0000,N,00000.0000,E,0.000,000.0,280606,,,N*52
$GNVTG,000.0,T,,M,0.000,N,0.000,K,N*1C
$GNZDA,120012.000000,28,06,2006,00,00*70
$GNGGA,120013.000000,0000.0000,N,00000.0000,E,0,00,0.0,0.0,M,0.0,M,,0000*42
$GNGLL,0000.0000,N,00000.0000,E,120013.000000,V,N*6E
$GNGSA,A,1,,,,,,,,,,,,,0.0,0.0,0.0,1*33
$GNRMC,120013.000000,V,0000.0000,N,00000.0000,E,0.000,000.0,280606,,,N*53
$GNVTG,000.0,T,,M,0.000,N,0.000,K,N*1C
$GNZDA,120013.000000,28,06,2006,00,00*71
$GNGGA,120014.000000,0000.0000,N,00000.0000,E,0,00,0.0,0.0,M,0.0,M,,0000*45
$GNGLL,0000.0000,N,00000.0000,E,120014.000000,V,N*69
$GNGSA,A,1,,,,,,,,,,,,,0.0,0.0,0.0,1*33
$GPGSV,2,1,08,10,00,000,43,05,00,000,46,12,00,000,42,13,00,000,46,1*6B
$GPGSV,2,2,08,14,00,000,41,15,00,000,50,18,00,000,50,20,00,000,41,1*66
$GNRMC,120014.000000,V,0000.0000,N,00000.0000,E,0.000,000.0,280606,,,N*54
$GNVTG,000.0,T,,M,0.000,N,0.000,K,N*1C
$GNZDA,120014.000000,28,06,2006,00,00*76
$GNGGA,120015.000000,0000.0000,N,00000.0000,E,0,00,0.0,0.0,M,0.0,M,,0000*44
$GNGLL,0000.0000,N,00000.0000,E,120015.000000,V,N*68
$GNGSA,A,1,,,,,,,,,,,,,0.0,0.0,0.0,1*33
$GNRMC,120015.000000,V,0000.0000,N,00000.0000,E,0.000,000.0,280606,,,N*55
$GNVTG,000.0,T,,M,0.000,N,0.000,K,N*1C
$GNZDA,120015.000000,28,06,2006,00,00*77
$GNGGA,120016.000000,0000.0000,N,00000.0000,E,0,00,0.0,0.0,M,0.0,M,,0000*47
$GNGLL,0000.0000,N,00000.0000,E,120016.000000,V,N*6B
$GNGSA,A,1,,,,,,,,,,,,,0.0,0.0,0.0,1*33
$GNRMC,120016.000000,V,0000.0000,N,00000.0000,E,0.000,000.0,280606,,,N*56
$GNVTG,000.0,T,,M,0.000,N,0.000,K,N*1C
$GNZDA,120016.000000,28,06,2006,00,00*74
$GNGGA,120017.000000,0000.0000,N,00000.0000,E,0,00,0.0,0.0,M,0.0,M,,0000*46
$GNGLL,0000.0000,N,00000.0000,E,120017.000000,V,N*6A
$GNGSA,A,1,,,,,,,,,,,,,0.0,0.0,0.0,1*33
$GPGSV,3,1,10,10,00,000,43,05,00,000,46,12,00,000,42,13,00,000,46,1*63
$GPGSV,3,2,10,14,00,000,42,15,00,000,50,18,00,000,50,20,00,000,41,1*6D
$GPGSV,3,3,10,24,00,000,50,23,00,000,49,1*6A
$GNRMC,120017.000000,V,0000.0000,N,00000.0000,E,0.000,000.0,280606,,,N*57
$GNVTG,000.0,T,,M,0.000,N,0.000,K,N*1C
$GNZDA,120017.000000,28,06,2006,00,00*75
$GNGGA,120018.000000,0000.0000,N,00000.0000,E,0,00,0.0,0.0,M,0.0,M,,0000*49
$GNGLL,0000.0000,N,00000.0000,E,120018.000000,V,N*65
$GNGSA,A,1,,,,,,,,,,,,,0.0,0.0,0.0,1*33
$GNRMC,120018.000000,V,0000.0000,N,00000.0000,E,0.000,000.0,280606,,,N*58
$GNVTG,000.0,T,,M,0.000,N,0.000,K,N*1C
$GNZDA,120018.000000,28,06,2006,00,00*7A
$GNGGA,120019.000000,0000.0000,N,00000.0000,E,0,00,0.0,0.0,M,0.0,M,,0000*48
$GNGLL,0000.0000,N,00000.0000,E,120019.000000,V,N*64
$GNGSA,A,1,,,,,,,,,,,,,0.0,0.0,0.0,1*33
$GNRMC,120019.000000,V,0000.0000,N,00000.0000,E,0.000,000.0,280606,,,N*59
$GNVTG,000.0,T,,M,0.000,N,0.000,K,N*1C
$GNZDA,120019.000000,28,06,2006,00,00*7B
$GNGGA,120020.000000,0000.0000,N,00000.0000,E,0,00,0.0,0.0,M,0.0,M,,0000*42
$GNGLL,0000.0000,N,00000.0000,E,120020.000000,V,N*6E
$GNGSA,A,1,,,,,,,,,,,,,0.0,0.0,0.0,1*33
$GPGSV,3,1,11,10,00,000,43,05,00,000,46,12,00,000,41,13,00,000,46,1*61
$GPGSV,3,2,11,14,00,000,42,15,00,000,50,18,00,000,49,20,00,000,41,1*64
$GPGSV,3,3,11,24,00,000,51,23,00,000,49,28,00,000,42,1*56
$GNRMC,120020.000000,V,0000.0000,N,00000.0000,E,0.000,000.0,280606,,,N*53
$GNVTG,000.0,T,,M,0.000,N,0.000,K,N*1C
$GNZDA,120020.000000,28,06,2006,00,00*71
$GNGGA,120021.000000,0000.0000,N,00000.0000,E,0,00,0.0,0.0,M,0.0,M,,0000*43
$GNGLL,0000.0000,N,00000.0000,E,120021.000000,V,N*6F
$GNGSA,A,1,,,,,,,,,,,,,0.0,0.0,0.0,1*33
$GNRMC,120021.000000,V,0000.0000,N,00000.0000,E,0.000,000.0,280606,,,N*52
$GNVTG,000.0,T,,M,0.000,N,0.000,K,N*1C
$GNZDA,120021.000000,28,06,2006,00,00*70
$GNGGA,120022.000000,0000.0000,N,00000.0000,E,0,00,0.0,0.0,M,0.0,M,,0000*40
$GNGLL,0000.0000,N,00000.0000,E,120022.000000,V,N*6C
$GNGSA,A,1,,,,,,,,,,,,,0.0,0.0,0.0,1*33
$GNRMC,120022.000000,V,0000.0000,N,00000.0000,E,0.000,000.0,280606,,,N*51
$GNVTG,000.0,T,,M,0.000,N,0.000,K,N*1C
$GNZDA,120022.000000,28,06,2006,00,00*73
$GNGGA,120023.000000,0000.0000,N,00000.0000,E,0,00,0.0,0.0,M,0.0,M,,0000*41
$GNGLL,0000.0000,N,00000.0000,E,120023.000000,V,N*6D
$GNGSA,A,1,,,,,,,,,,,,,0.0,0.0,0.0,1*33
$GPGSV,3,1,11,10,00,000,43,05,00,000,46,12,00,000,42,13,00,000,46,1*62
$GPGSV,3,2,11,14,00,000,42,15,00,000,50,18,00,000,50,20,00,000,41,1*6C
$GPGSV,3,3,11,24,00,000,51,23,00,000,49,28,00,000,43,1*57
$GNRMC,120023.000000,V,0000.0000,N,00000.0000,E,0.000,000.0,280606,,,N*50
$GNVTG,000.0,T,,M,0.000,N,0.000,K,N*1C
$GNZDA,120023.000000,28,06,2006,00,00*72
$GNGGA,120024.000000,0000.0000,N,00000.0000,E,0,00,0.0,0.0,M,0.0,M,,0000*46
$GNGLL,0000.0000,N,00000.0000,E,120024.000000,V,N*6A
$GNGSA,A,1,,,,,,,,,,,,,0.0,0.0,0.0,1*33
$GNRMC,120024.000000,V,0000.0000,N,00000.0000,E,0.000,000.0,280606,,,N*57
$GNVTG,000.0,T,,M,0.000,N,0.000,K,N*1C
$GNZDA,120024.000000,28,06,2006,00,00*75
$GNGGA,120025.000000,0000.0000,N,00000.0000,E,0,00,0.0,0.0,M,0.0,M,,0000*47
$GNGLL,0000.0000,N,00000.0000,E,120025.000000,V,N*6B
$GNGSA,A,1,,,,,,,,,,,,,0.0,0.0,0.0,1*33
$GNRMC,120025.000000,V,0000.0000,N,00000.0000,E,0.000,000.0,280606,,,N*56
$GNVTG,000.0,T,,M,0.000,N,0.000,K,N*1C
$GNZDA,120025.000000,28,06,2006,00,00*74
$GNGGA,120026.000000,0000.0000,N,00000.0000,E,0,00,0.0,0.0,M,0.0,M,,0000*44
$GNGLL,0000.0000,N,00000.0000,E,120026.000000,V,N*68
$GNGSA,A,1,,,,,,,,,,,,,0.0,0.0,0.0,1*33
$GPGSV,3,1,11,10,00,000,43,05,00,000,46,12,00,000,42,13,00,000,46,1*62
$GPGSV,3,2,11,14,00,000,42,15,00,000,50,18,00,000,50,20,00,000,41,1*6C
$GPGSV,3,3,11,24,00,000,51,23,00,000,49,28,00,000,43,1*57
$GNRMC,120026.000000,V,0000.0000,N,00000.0000,E,0.000,000.0,280606,,,N*55
$GNVTG,000.0,T,,M,0.000,N,0.000,K,N*1C
$GNZDA,120026.000000,28,06,2006,00,00*77
$GNGGA,120027.000000,0000.0000,N,00000.0000,E,0,00,0.0,0.0,M,0.0,M,,0000*45
$GNGLL,0000.0000,N,00000.0000,E,120027.000000,V,N*69
$GNGSA,A,1,,,,,,,,,,,,,0.0,0.0,0.0,1*33
$GNRMC,120027.000000,V,0000.0000,N,00000.0000,E,0.000,000.0,280606,,,N*54
$GNVTG,000.0,T,,M,0.000,N,0.000,K,N*1C
$GNZDA,120027.000000,28,06,2006,00,00*76
$GNGGA,120028.000000,0000.0000,N,00000.0000,E,0,00,0.0,0.0,M,0.0,M,,0000*4A
$GNGLL,0000.0000,N,00000.0000,E,120028.000000,V,N*66
$GNGSA,A,1,,,,,,,,,,,,,0.0,0.0,0.0,1*33
$GNRMC,120028.000000,V,0000.0000,N,00000.0000,E,0.000,000.0,280606,,,N*5B
$GNVTG,000.0,T,,M,0.000,N,0.000,K,N*1C
$GNZDA,120028.000000,28,06,2006,00,00*79
$GNGGA,120029.000000,0000.0000,N,00000.0000,E,0,00,0.0,0.0,M,0.0,M,,0000*4B
$GNGLL,0000.0000,N,00000.0000,E,120029.000000,V,N*67
$GNGSA,A,1,,,,,,,,,,,,,0.0,0.0,0.0,1*33
$GPGSV,3,1,10,10,00,000,43,05,00,000,45,12,00,000,41,13,00,000,46,1*63
$GPGSV,3,2,10,14,00,000,42,15,00,000,50,18,00,000,50,24,00,000,51,1*68
$GPGSV,3,3,10,23,00,000,49,28,00,000,42,1*65
$GNRMC,120029.000000,V,0000.0000,N,00000.0000,E,0.000,000.0,280606,,,N*5A
$GNVTG,000.0,T,,M,0.000,N,0.000,K,N*1C
$GNZDA,120029.000000,28,06,2006,00,00*78
$GNGGA,120030.000000,0000.0000,N,00000.0000,E,0,00,0.0,0.0,M,0.0,M,,0000*43
$GNGLL,0000.0000,N,00000.0000,E,120030.000000,V,N*6F
$GNGSA,A,1,,,,,,,,,,,,,0.0,0.0,0.0,1*33
$GNRMC,120030.000000,V,0000.0000,N,00000.0000,E,0.000,000.0,280606,,,N*52
$GNVTG,000.0,T,,M,0.000,N,0.000,K,N*1C
$GNZDA,120030.000000,28,06,2006,00,00*70
$GNGGA,120031.000000,0000.0000,N,00000.0000,E,0,00,0.0,0.0,M,0.0,M,,0000*42
$GNGLL,0000.0000,N,00000.0000,E,120031.000000,V,N*6E
$GNGSA,A,1,,,,,,,,,,,,,0.0,0.0,0.0,1*33
$GNRMC,120031.000000,V,0000.0000,N,00000.0000,E,0.000,000.0,280606,,,N*53
$GNVTG,000.0,T,,M,0.000,N,0.000,K,N*1C
$GNZDA,120031.000000,28,06,2006,00,00*71
$GNGGA,120032.000000,0000.0000,N,00000.0000,E,0,00,0.0,0.0,M,0.0,M,,0000*41
$GNGLL,0000.0000,N,00000.0000,E,120032.000000,V,N*6D
$GNGSA,A,1,,,,,,,,,,,,,0.0,0.0,0.0,1*33
$GPGSV,3,1,10,10,00,000,43,05,00,000,45,12,00,000,41,13,00,000,46,1*63
$GPGSV,3,2,10,14,00,000,42,15,00,000,50,18,00,000,50,24,00,000,51,1*68
$GPGSV,3,3,10,23,00,000,49,28,00,000,43,1*64
$GNRMC,120032.000000,V,0000.0000,N,00000.0000,E,0.000,000.0,280606,,,N*50
$GNVTG,000.0,T,,M,0.000,N,0.000,K,N*1C
$GNZDA,120032.000000,28,06,2006,00,00*72
$GNGGA,120033.000000,0000.0000,N,00000.0000,E,0,00,0.0,0.0,M,0.0,M,,0000*40
$GNGLL,0000.0000,N,00000.0000,E,120033.000000,V,N*6C
$GNGSA,A,1,,,,,,,,,,,,,0.0,0.0,0.0,1*33
$GNRMC,120033.000000,V,0000.0000,N,00000.0000,E,0.000,000.0,280606,,,N*51
$GNVTG,000.0,T,,M,0.000,N,0.000,K,N*1C
$GNZDA,120033.000000,28,06,2006,00,00*73
$GNGGA,120034.000000,0000.0000,N,00000.0000,E,0,00,0.0,0.0,M,0.0,M,,0000*47
$GNGLL,0000.0000,N,00000.0000,E,120034.000000,V,N*6B
$GNGSA,A,1,,,,,,,,,,,,,0.0,0.0,0.0,1*33
$GNRMC,120034.000000,V,0000.0000,N,00000.0000,E,0.000,000.0,280606,,,N*56
$GNVTG,000.0,T,,M,0.000,N,0.000,K,N*1C
$GNZDA,120034.000000,28,06,2006,00,00*74
$GNGGA,000019.000000,0000.0000,N,00000.0000,E,0,00,0.0,0.0,M,0.0,M,,0000*4B
$GNGLL,0000.0000,N,00000.0000,E,000019.000000,V,N*67
$GNGSA,A,1,,,,,,,,,,,,,0.0,0.0,0.0,1*33
$GPGSV,3,1,10,10,00,000,43,05,00,000,45,12,00,000,41,13,00,000,46,1*63
$GPGSV,3,2,10,14,00,000,42,15,00,000,50,18,00,000,50,24,00,000,51,1*68
$GPGSV,3,3,10,23,00,000,49,28,00,000,42,1*65
$GNRMC,000019.000000,V,0000.0000,N,00000.0000,E,0.000,000.0,010122,,,N*50
$GNVTG,000.0,T,,M,0.000,N,0.000,K,N*1C
$GNZDA,000019.000000,01,01,2022,00,00*72
$GNGGA,000020.000000,0000.0000,N,00000.0000,E,0,00,0.0,0.0,M,0.0,M,,0000*41
$GNGLL,0000.0000,N,00000.0000,E,000020.000000,V,N*6D
$GNGSA,A,1,,,,,,,,,,,,,0.0,0.0,0.0,1*33
$GNRMC,000020.000000,V,0000.0000,N,00000.0000,E,0.000,000.0,010122,,,N*5A
$GNVTG,000.0,T,,M,0.000,N,0.000,K,N*1C
$GNZDA,000020.000000,01,01,2022,00,00*78
$GNGGA,000021.000000,0000.0000,N,00000.0000,E,0,00,0.0,0.0,M,0.0,M,,0000*40
$GNGLL,0000.0000,N,00000.0000,E,000021.000000,V,N*6C
$GNGSA,A,1,,,,,,,,,,,,,0.0,0.0,0.0,1*33
$GNRMC,000021.000000,V,0000.0000,N,00000.0000,E,0.000,000.0,010122,,,N*5B
$GNVTG,000.0,T,,M,0.000,N,0.000,K,N*1C
$GNZDA,000021.000000,01,01,2022,00,00*79
$GNGGA,000022.000000,0000.0000,N,00000.0000,E,0,00,0.0,0.0,M,0.0,M,,0000*43
$GNGLL,0000.0000,N,00000.0000,E,000022.000000,V,N*6F
$GNGSA,A,1,,,,,,,,,,,,,0.0,0.0,0.0,1*33
$GPGSV,3,1,10,10,00,000,43,05,00,000,45,12,00,000,41,13,00,000,46,1*63
$GPGSV,3,2,10,14,00,000,42,15,00,000,50,18,00,000,50,24,00,000,51,1*68
$GPGSV,3,3,10,23,00,000,50,28,00,000,42,1*6D
$GNRMC,000022.000000,V,0000.0000,N,00000.0000,E,0.000,000.0,010122,,,N*58
$GNVTG,000.0,T,,M,0.000,N,0.000,K,N*1C
$GNZDA,000022.000000,01,01,2022,00,00*7A
$GNGGA,000023.000000,0000.0000,N,00000.0000,E,0,00,0.0,0.0,M,0.0,M,,0000*42
$GNGLL,0000.0000,N,00000.0000,E,000023.000000,V,N*6E
$GNGSA,A,1,,,,,,,,,,,,,0.0,0.0,0.0,1*33
$GNRMC,000023.000000,V,0000.0000,N,00000.0000,E,0.000,000.0,010122,,,N*59
$GNVTG,000.0,T,,M,0.000,N,0.000,K,N*1C
$GNZDA,000023.000000,01,01,2022,00,00*7B
$GNGGA,000023.627663,3834.6139,N,12451.0863,E,1,04,2.3,352412.4,M,17.8,M,,0000*40
$GNGLL,3834.6139,N,12451.0863,E,000023.627663,A,A*79
$GPGSA,A,3,10,05,12,13,,,,,,,,,6.2,2.3,5.7,1*2D
$GNRMC,000023.627663,A,3834.6139,N,12451.0863,E,15088.369,347.6,010122,,,A*40
$GNVTG,347.6,T,,M,15088.369,N,27943.660,K,A*16
$GNZDA,000023.627663,01,01,2022,00,00*7B
$GNGGA,000024.627666,3838.4978,N,12450.0026,E,1,05,1.1,352405.9,M,17.7,M,,0000*4D
$GNGLL,3838.4978,N,12450.0026,E,000024.627666,A,A*70
$GPGSA,A,3,10,05,12,13,14,,,,,,,,2.9,1.1,2.7,1*21
$GPGSV,3,1,10,24,68,174,50,15,58,047,50,18,54,240,49,23,52,317,49,1*6A
$GPGSV,3,2,10,13,27,057,46,05,24,120,45,10,19,308,43,28,11,063,42,1*6E
$GPGSV,3,3,10,14,06,045,42,12,00,157,40,1*65
$GNRMC,000024.627666,A,3838.4978,N,12450.0026,E,15089.063,347.6,010122,,,A*41
$GNVTG,347.6,T,,M,15089.063,N,27944.945,K,A*11
$GNZDA,000024.627666,01,01,2022,00,00*79
$GNGGA,000025.627668,3842.3814,N,12448.9174,E,1,05,1.1,352397.5,M,17.6,M,,0000*44
$GNGLL,3842.3814,N,12448.9174,E,000025.627668,A,A*78
$GPGSA,A,3,10,05,12,13,14,,,,,,,,2.9,1.1,2.7,1*21
$GNRMC,000025.627668,A,3842.3814,N,12448.9174,E,15089.185,347.6,010122,,,A*40
$GNVTG,347.6,T,,M,15089.185,N,27945.170,K,A*17
$GNZDA,000025.627668,01,01,2022,00,00*76
$GNGGA,000026.627672,3846.2650,N,12447.8300,E,1,06,1.1,352386.7,M,17.6,M,,0000*49
$GNGLL,3846.2650,N,12447.8300,E,000026.627672,A,A*74
$GPGSA,A,3,10,05,12,13,14,15,,,,,,,1.9,1.1,1.6,1*24
$GNRMC,000026.627672,A,3846.2650,N,12447.8300,E,15089.289,347.6,010122,,,A*43
$GNVTG,347.6,T,,M,15089.289,N,27945.363,K,A*18
$GNZDA,000026.627672,01,01,2022,00,00*7E
$GNGGA,000027.627676,3850.1478,N,12446.7412,E,1,06,1.1,352381.5,M,17.5,M,,0000*4C
$GNGLL,3850.1478,N,12446.7412,E,000027.627676,A,A*77
$GPGSA,A,3,10,05,12,13,14,15,,,,,,,1.9,1.1,1.6,1*24
$GPGSV,3,1,10,24,67,174,50,15,58,048,50,18,54,240,49,23,52,316,49,1*6B
$GPGSV,3,2,10,13,27,057,46,05,24,120,45,10,19,308,43,28,11,063,42,1*6E
$GPGSV,3,3,10,14,06,045,42,12,00,157,40,1*65
$GNRMC,000027.627676,A,3850.1478,N,12446.7412,E,15089.407,347.6,010122,,,A*40
$GNVTG,347.6,T,,M,15089.407,N,27945.582,K,A*11
$GNZDA,000027.627676,01,01,2022,00,00*7B
$GNGGA,000028.627678,3854.0305,N,12445.6506,E,1,06,1.1,352376.5,M,17.4,M,,0000*4A
$GNGLL,3854.0305,N,12445.6506,E,000028.627678,A,A*78
$GPGSA,A,3,10,05,12,13,14,15,,,,,,,1.9,1.1,1.6,1*24
$GNRMC,000028.627678,A,3854.0305,N,12445.6506,E,15089.526,347.6,010122,,,A*4D
$GNVTG,347.6,T,,M,15089.526,N,27945.803,K,A*17
$GNZDA,000028.627678,01,01,2022,00,00*7A
$GNGGA,000029.627682,3857.9133,N,12444.5588,E,1,06,1.1,352370.5,M,17.4,M,,0000*41
$GNGLL,3857.9133,N,12444.5588,E,000029.627682,A,A*75
$GPGSA,A,3,10,05,12,13,14,15,,,,,,,1.9,1.1,1.6,1*24
$GNRMC,000029.627682,A,3857.9133,N,12444.5588,E,15089.622,347.6,010122,,,A*47
$GNVTG,347.6,T,,M,15089.622,N,27945.980,K,A*1A
$GNZDA,000029.627682,01,01,2022,00,00*7E
$GNGGA,000030.997686,3903.2328,N,12443.0612,E,1,09,0.9,352362.5,M,17.3,M,,0000*4A
$GNGLL,3903.2328,N,12443.0612,E,000030.997686,A,A*7C
$GPGSA,A,3,10,05,12,13,14,15,18,24,23,,,,1.4,0.9,1.1,1*29
$GPGSV,3,1,10,24,67,173,38,15,58,048,50,18,53,239,49,23,52,316,49,1*6B
$GPGSV,3,2,10,13,28,057,46,05,24,120,45,10,19,308,43,28,11,063,42,1*61
$GPGSV,3,3,10,14,06,045,42,12,00,157,40,1*65
$GNRMC,000030.997686,A,3903.2328,N,12443.0612,E,15089.812,347.6,010122,,,A*43
$GNVTG,347.6,T,,M,15089.812,N,27946.330,K,A*15
$GNZDA,000030.997686,01,01,2022,00,00*76
$GNGGA,000031.997690,3907.1153,N,12441.9655,E,1,09,0.9,352356.5,M,17.2,M,,0000*4B
$GNGLL,3907.1153,N,12441.9655,E,000031.997690,A,A*7B
$GPGSA,A,3,10,05,12,13,14,15,18,24,23,,,,1.4,0.9,1.1,1*29
$GNRMC,000031.997690,A,3907.1153,N,12441.9655,E,15089.900,347.6,010122,,,A*46
$GNVTG,347.6,T,,M,15089.900,N,27946.496,K,A*1C
$GNZDA,000031.997690,01,01,2022,00,00*70
$GNGGA,000032.997692,3910.9974,N,12440.8683,E,1,09,0.9,352349.9,M,17.1,M,,0000*43
$GNGLL,3910.9974,N,12440.8683,E,000032.997692,A,A*72
$GPGSA,A,3,10,05,12,13,14,15,18,24,23,,,,1.4,0.9,1.1,1*29
$GNRMC,000032.997692,A,3910.9974,N,12440.8683,E,15090.017,347.6,010122,,,A*48
$GNVTG,347.6,T,,M,15090.017,N,27946.711,K,A*17
$GNZDA,000032.997692,01,01,2022,00,00*71
$GNGGA,000033.997696,3914.8796,N,12439.7695,E,1,09,0.9,352344.2,M,17.1,M,,0000*41
$GNGLL,3914.8796,N,12439.7695,E,000033.997696,A,A*76
$GPGSA,A,3,10,05,12,13,14,15,18,24,23,,,,1.4,0.9,1.1,1*29
$GPGSV,3,1,10,24,67,173,50,15,58,049,50,18,53,239,49,23,53,316,49,1*65
$GPGSV,3,2,10,13,28,057,46,05,24,120,45,10,19,308,43,28,11,063,42,1*61
$GPGSV,3,3,10,14,06,045,42,12,00,157,40,1*65
$GNRMC,000033.997696,A,3914.8796,N,12439.7695,E,15090.139,347.6,010122,,,A*41
$GNVTG,347.6,T,,M,15090.139,N,27946.937,K,A*10
$GNZDA,000033.997696,01,01,2022,00,00*74
$GNGGA,000034.997700,3918.7617,N,12438.6694,E,1,09,0.9,352337.8,M,17.0,M,,0000*4D
$GNGLL,3918.7617,N,12438.6694,E,000034.997700,A,A*75
$GPGSA,A,3,10,05,12,13,14,15,18,24,23,,,,1.4,0.9,1.1,1*29
$GNRMC,000034.997700,A,3918.7617,N,12438.6694,E,15090.245,347.6,010122,,,A*4A
$GNVTG,347.6,T,,M,15090.245,N,27947.135,K,A*13
$GNZDA,000034.997700,01,01,2022,00,00*7D
$GNGGA,000035.997704,3922.6439,N,12437.5675,E,1,09,0.9,352332.0,M,16.9,M,,0000*48
$GNGLL,3922.6439,N,12437.5675,E,000035.997704,A,A*75
$GPGSA,A,3,10,05,12,13,14,15,18,24,23,,,,1.4,0.9,1.1,1*29
$GNRMC,000035.997704,A,3922.6439,N,12437.5675,E,15090.364,347.6,010122,,,A*48
$GNVTG,347.6,T,,M,15090.364,N,27947.355,K,A*15
$GNZDA,000035.997704,01,01,2022,00,00*78
$GNGGA,000036.997707,3926.5262,N,12436.4644,E,1,09,0.9,352325.9,M,16.9,M,,0000*4A
$GNGLL,3926.5262,N,12436.4644,E,000036.997707,A,A*78
$GPGSA,A,3,10,05,12,13,14,15,18,24,23,,,,1.4,0.9,1.1,1*29
$GPGSV,3,1,10,24,67,173,50,15,58,049,50,18,53,238,49,23,53,316,49,1*64
$GPGSV,3,2,10,13,28,057,46,05,24,120,45,10,19,308,43,28,11,063,42,1*61
$GPGSV,3,3,10,14,06,045,42,12,00,157,40,1*65
$GNRMC,000036.997707,A,3926.5262,N,12436.4644,E,15090.473,347.6,010122,,,A*44
$GNVTG,347.6,T,,M,15090.473,N,27947.555,K,A*12
$GNZDA,000036.997707,01,01,2022,00,00*78
$GNGGA,000037.997711,3930.4083,N,12435.3593,E,1,09,0.9,352320.3,M,16.8,M,,0000*44
$GNGLL,3930.4083,N,12435.3593,E,000037.997711,A,A*78
$GPGSA,A,3,10,05,12,13,14,15,18,24,23,,,,1.4,0.9,1.1,1*29
$GNRMC,000037.997711,A,3930.4083,N,12435.3593,E,15090.580,347.6,010122,,,A*49
$GNVTG,347.6,T,,M,15090.580,N,27947.754,K,A*1C
$GNZDA,000037.997711,01,01,2022,00,00*7E
$GNGGA,000038.997711,3934.2902,N,12434.2528,E,1,09,0.9,352314.8,M,16.7,M,,0000*4A
$GNGLL,3934.2902,N,12434.2528,E,000038.997711,A,A*75
$GPGSA,A,3,10,05,12,13,14,15,18,24,23,,,,1.4,0.9,1.1,1*29
$GNRMC,000038.997711,A,3934.2902,N,12434.2528,E,15090.689,347.6,010122,,,A*4E
$GNVTG,347.6,T,,M,15090.689,N,27947.957,K,A*1B
$GNZDA,000038.997711,01,01,2022,00,00*71
$GNGGA,000039.997715,3938.1719,N,12433.1449,E,1,09,0.9,352308.2,M,16.7,M,,0000*41
$GNGLL,3938.1719,N,12433.1449,E,000039.997715,A,A*79
$GPGSA,A,3,10,05,12,13,14,15,18,24,23,,,,1.4,0.9,1.1,1*29
$GPGSV,3,1,10,24,66,173,50,15,58,049,50,18,53,238,49,23,53,316,49,1*65
$GPGSV,3,2,10,13,28,057,45,05,23,120,45,10,19,308,43,28,12,063,42,1*66
$GPGSV,3,3,10,14,06,045,42,12,00,157,40,1*65
$GNRMC,000039.997715,A,3938.1719,N,12433.1449,E,15090.820,347.5,010122,,,A*4C
$GNVTG,347.5,T,,M,15090.820,N,27948.199,K,A*10
$GNZDA,000039.997715,01,01,2022,00,00*74
$GNGGA,000040.997719,3942.0534,N,12432.0351,E,1,09,0.9,352301.2,M,16.6,M,,0000*44
$GNGLL,3942.0534,N,12432.0351,E,000040.997719,A,A*74
$GPGSA,A,3,10,05,12,13,14,15,18,24,23,,,,1.4,0.9,1.1,1*29
$GNRMC,000040.997719,A,3942.0534,N,12432.0351,E,15090.919,347.5,010122,,,A*4A
$GNVTG,347.5,T,,M,15090.919,N,27948.383,K,A*12
$GNZDA,000040.997719,01,01,2022,00,00*76
$GNGGA,000041.997723,3945.9349,N,12430.9239,E,1,09,0.9,352294.8,M,16.5,M,,0000*4E
$GNGLL,3945.9349,N,12430.9239,E,000041.997723,A,A*7A
$GPGSA,A,3,10,05,12,13,14,15,18,24,23,,,,1.4,0.9,1.1,1*29
$GNRMC,000041.997723,A,3945.9349,N,12430.9239,E,15091.044,347.5,010122,,,A*44
$GNVTG,347.5,T,,M,15091.044,N,27948.613,K,A*1E
$GNZDA,000041.997723,01,01,2022,00,00*7E
$GNGGA,000042.997726,3949.8152,N,12429.8106,E,1,08,1.1,352285.7,M,16.5,M,,0000*4C
$GNGLL,3949.8152,N,12429.8106,E,000042.997726,A,A*7F
$GPGSA,A,3,10,05,13,14,15,18,24,23,,,,,2.0,1.1,1.6,1*23
$GPGSV,3,1,11,24,66,173,50,15,58,050,50,18,53,238,49,23,53,315,49,1*6F
$GPGSV,3,2,11,13,28,057,46,05,23,120,45,10,20,308,43,28,12,063,42,1*6E
$GPGSV,3,3,11,14,07,045,42,12,00,157,22,27,00,310,,1*56
$GNRMC,000042.997726,A,3949.8152,N,12429.8106,E,15091.066,347.5,010122,,,A*41
$GNVTG,347.5,T,,M,15091.066,N,27948.654,K,A*1D
$GNZDA,000042.997726,01,01,2022,00,00*78
$GNGGA,000043.997730,3953.6963,N,12428.6961,E,1,08,1.1,352280.7,M,16.4,M,,0000*47
$GNGLL,3953.6963,N,12428.6961,E,000043.997730,A,A*70
$GPGSA,A,3,10,05,13,14,15,18,24,23,,,,,2.0,1.1,1.6,1*23
$GNRMC,000043.997730,A,3953.6963,N,12428.6961,E,15091.254,347.5,010122,,,A*4D
$GNVTG,347.5,T,,M,15091.254,N,27949.002,K,A*1A
$GNZDA,000043.997730,01,01,2022,00,00*7E
$GNGGA,000044.997738,3957.5776,N,12427.5797,E,1,08,1.1,352274.5,M,16.3,M,,0000*40
$GNGLL,3957.5776,N,12427.5797,E,000044.997738,A,A*79
$GPGSA,A,3,10,05,13,14,15,18,24,23,,,,,2.0,1.1,1.6,1*23
$GNRMC,000044.997738,A,3957.5776,N,12427.5797,E,15091.354,347.5,010122,,,A*45
$GNVTG,347.5,T,,M,15091.354,N,27949.187,K,A*17
$GNZDA,000044.997738,01,01,2022,00,00*71
$GNGGA,000045.997738,4001.4590,N,12426.4620,E,1,08,1.1,352268.7,M,16.2,M,,0000*44
$GNGLL,4001.4590,N,12426.4620,E,000045.997738,A,A*73
$GPGSA,A,3,10,05,13,14,15,18,24,23,,,,,2.0,1.1,1.6,1*23
$GPGSV,3,1,10,24,66,173,51,15,58,050,50,23,54,315,49,18,53,237,49,1*67
$GPGSV,3,2,10,13,28,058,46,05,23,120,45,10,20,307,43,28,12,063,42,1*6F
$GPGSV,3,3,10,14,07,045,42,27,00,310,,1*67
$GNRMC,000045.997738,A,4001.4590,N,12426.4620,E,15091.469,347.5,010122,,,A*46
$GNVTG,347.5,T,,M,15091.469,N,27949.400,K,A*14
$GNZDA,000045.997738,01,01,2022,00,00*70
$GNGGA,000046.997738,4005.3399,N,12425.3423,E,1,08,1.1,352262.2,M,16.1,M,,0000*42
$GNGLL,4005.3399,N,12425.3423,E,000046.997738,A,A*79
$GPGSA,A,3,10,05,13,14,15,18,24,23,,,,,2.0,1.1,1.6,1*23
$GNRMC,000046.997738,A,4005.3399,N,12425.3423,E,15091.589,347.5,010122,,,A*43
$GNVTG,347.5,T,,M,15091.589,N,27949.623,K,A*18
$GNZDA,000046.997738,01,01,2022,00,00*73
$GNGGA,000047.997742,4009.2208,N,12424.2211,E,1,08,1.1,352256.6,M,16.0,M,,0000*4F
$GNGLL,4009.2208,N,12424.2211,E,000047.997742,A,A*76
$GPGSA,A,3,10,05,13,14,15,18,24,23,,,,,2.0,1.1,1.6,1*23
$GNRMC,000047.997742,A,4009.2208,N,12424.2211,E,15091.699,347.5,010122,,,A*4E
$GNVTG,347.5,T,,M,15091.699,N,27949.826,K,A*11
$GNZDA,000047.997742,01,01,2022,00,00*7F
$GNGGA,000048.997746,4013.1015,N,12423.0982,E,1,08,1.1,352251.7,M,15.9,M,,0000*4A
$GNGLL,4013.1015,N,12423.0982,E,000048.997746,A,A*7F
$GPGSA,A,3,10,05,13,14,15,18,24,23,,,,,2.0,1.1,1.6,1*23
$GPGSV,3,1,10,24,66,173,51,15,58,050,50,23,54,315,49,18,53,237,49,1*67
$GPGSV,3,2,10,13,28,058,46,05,23,120,45,10,20,307,44,28,12,063,42,1*68
$GPGSV,3,3,10,14,07,045,42,27,00,310,,1*67
$GNRMC,000048.997746,A,4013.1015,N,12423.0982,E,15091.799,347.5,010122,,,A*46
$GNVTG,347.5,T,,M,15091.799,N,27950.012,K,A*17
$GNZDA,000048.997746,01,01,2022,00,00*74
$GNGGA,000049.997749,4016.9822,N,12421.9738,E,1,08,1.1,352246.1,M,15.8,M,,0000*40
$GNGLL,4016.9822,N,12421.9738,E,000049.997749,A,A*74
$GPGSA,A,3,10,05,13,14,15,18,24,23,,,,,2.0,1.1,1.6,1*23
$GNRMC,000049.997749,A,4016.9822,N,12421.9738,E,15091.925,347.5,010122,,,A*44
$GNVTG,347.5,T,,M,15091.925,N,27950.244,K,A*1F
$GNZDA,000049.997749,01,01,2022,00,00*7A
$GNGGA,000050.997753,4020.8629,N,12420.8476,E,1,08,1.1,352239.6,M,15.7,M,,0000*4B
$GNGLL,4020.8629,N,12420.8476,E,000050.997753,A,A*7F
$GPGSA,A,3,10,05,13,14,15,18,24,23,,,,,2.0,1.1,1.6,1*23
$GNRMC,000050.997753,A,4020.8629,N,12420.8476,E,15092.039,347.5,010122,,,A*48
$GNVTG,347.5,T,,M,15092.039,N,27950.457,K,A*1C
$GNZDA,000050.997753,01,01,2022,00,00*79
$GNGGA,000051.997757,4024.7432,N,12419.7200,E,1,08,1.1,352234.3,M,15.5,M,,0000*45
$GNGLL,4024.7432,N,12419.7200,E,000051.997757,A,A*7B
$GPGSA,A,3,10,05,13,14,15,18,24,23,,,,,2.0,1.1,1.6,1*23
$GPGSV,3,1,10,24,66,173,50,15,59,051,50,23,54,315,49,18,53,236,49,1*67
$GPGSV,3,2,10,13,28,058,46,05,23,120,45,10,20,307,44,28,12,063,42,1*68
$GPGSV,3,3,10,14,07,045,42,27,01,310,,1*66
$GNRMC,000051.997757,A,4024.7432,N,12419.7200,E,15092.146,347.5,010122,,,A*45
$GNVTG,347.5,T,,M,15092.146,N,27950.656,K,A*16
$GNZDA,000051.997757,01,01,2022,00,00*7C
$GNGGA,000052.997761,4028.6233,N,12418.5904,E,1,08,1.1,352228.2,M,15.4,M,,0000*48
$GNGLL,4028.6233,N,12418.5904,E,000052.997761,A,A*7B
$GPGSA,A,3,10,05,13,14,15,18,24,23,,,,,2.0,1.1,1.6,1*23
$GNRMC,000052.997761,A,4028.6233,N,12418.5904,E,15092.256,347.5,010122,,,A*47
$GNVTG,347.5,T,,M,15092.256,N,27950.857,K,A*1B
$GNZDA,000052.997761,01,01,2022,00,00*7A
$GNGGA,000053.997761,4032.5036,N,12417.4590,E,1,08,1.1,352221.5,M,15.3,M,,0000*40
$GNGLL,4032.5036,N,12417.4590,E,000053.997761,A,A*7A
$GPGSA,A,3,10,05,13,14,15,18,24,23,,,,,2.0,1.1,1.6,1*23
$GNRMC,000053.997761,A,4032.5036,N,12417.4590,E,15092.385,347.5,010122,,,A*49
$GNVTG,347.5,T,,M,15092.385,N,27951.096,K,A*10
$GNZDA,000053.997761,01,01,2022,00,00*7B
$GNGGA,000054.997765,4036.3839,N,12416.3263,E,1,08,1.1,352215.3,M,15.2,M,,0000*4B
$GNGLL,4036.3839,N,12416.3263,E,000054.997765,A,A*71
$GPGSA,A,3,10,05,13,14,15,18,24,23,,,,,2.0,1.1,1.6,1*23
$GPGSV,3,1,10,24,65,172,50,15,59,051,50,23,54,314,49,18,53,236,49,1*64
$GPGSV,3,2,10,13,28,058,46,05,23,120,45,10,20,307,44,28,12,063,42,1*68
$GPGSV,3,3,10,14,07,045,42,27,01,309,,1*6E
$GNRMC,000054.997765,A,4036.3839,N,12416.3263,E,15092.479,347.4,010122,,,A*47
$GNVTG,347.4,T,,M,15092.479,N,27951.271,K,A*1E
$GNZDA,000054.997765,01,01,2022,00,00*78
$GNGGA,000055.997768,4040.2639,N,12415.1916,E,1,08,1.1,352209.2,M,15.1,M,,0000*4E
$GNGLL,4040.2639,N,12415.1916,E,000055.997768,A,A*7B
$GPGSA,A,3,10,05,13,14,15,18,24,23,,,,,2.0,1.1,1.6,1*23
$GNRMC,000055.997768,A,4040.2639,N,12415.1916,E,15092.612,347.4,010122,,,A*42
$GNVTG,347.4,T,,M,15092.612,N,27951.518,K,A*19
$GNZDA,000055.997768,01,01,2022,00,00*74
$GNGGA,000056.997772,4044.1438,N,12414.0554,E,1,08,1.1,352204.4,M,15.0,M,,0000*42
$GNGLL,4044.1438,N,12414.0554,E,000056.997772,A,A*7D
$GPGSA,A,3,10,05,13,14,15,18,24,23,,,,,2.0,1.1,1.6,1*23
$GNRMC,000056.997772,A,4044.1438,N,12414.0554,E,15092.709,347.4,010122,,,A*4F
$GNVTG,347.4,T,,M,15092.709,N,27951.697,K,A*16
$GNZDA,000056.997772,01,01,2022,00,00*7C
$GNGGA,000057.997776,4048.0235,N,12412.9170,E,1,08,1.1,352198.4,M,14.8,M,,0000*43
$GNGLL,4048.0235,N,12412.9170,E,000057.997776,A,A*73
$GPGSA,A,3,10,05,13,14,15,18,24,23,,,,,2.0,1.1,1.6,1*23
$GPGSV,3,1,10,24,65,172,51,15,59,052,50,23,55,314,49,18,53,236,49,1*67
$GPGSV,3,2,10,13,28,058,46,05,22,121,45,10,21,307,44,28,12,063,42,1*69
$GPGSV,3,3,10,14,07,045,42,27,01,309,,1*6E
$GNRMC,000057.997776,A,4048.0235,N,12412.9170,E,15092.818,347.4,010122,,,A*4E
$GNVTG,347.4,T,,M,15092.818,N,27951.900,K,A*18
$GNZDA,000057.997776,01,01,2022,00,00*79
$GNGGA,000058.997780,4051.9034,N,12411.7774,E,1,08,1.1,352192.7,M,14.7,M,,0000*4E
$GNGLL,4051.9034,N,12411.7774,E,000058.997780,A,A*78
$GPGSA,A,3,10,05,13,14,15,18,24,23,,,,,2.0,1.1,1.6,1*23
$GNRMC,000058.997780,A,4051.9034,N,12411.7774,E,15092.947,347.4,010122,,,A*4E
$GNVTG,347.4,T,,M,15092.947,N,27952.139,K,A*12
$GNZDA,000058.997780,01,01,2022,00,00*7F
$GNGGA,000059.997784,4055.7829,N,12410.6360,E,1,08,1.1,352186.6,M,14.6,M,,0000*41
$GNGLL,4055.7829,N,12410.6360,E,000059.997784,A,A*72
$GPGSA,A,3,10,05,13,14,15,18,24,23,,,,,2.0,1.1,1.6,1*23
$GNRMC,000059.997784,A,4055.7829,N,12410.6360,E,15093.069,347.4,010122,,,A*40
$GNVTG,347.4,T,,M,15093.069,N,27952.365,K,A*1D
$GNZDA,000059.997784,01,01,2022,00,00*7A
$GNGGA,000100.997785,4059.6622,N,12409.4926,E,1,08,1.1,352181.7,M,14.5,M,,0000*42
$GNGLL,4059.6622,N,12409.4926,E,000100.997785,A,A*74
$GPGSA,A,3,10,05,13,14,15,18,24,23,,,,,2.0,1.1,1.6,1*23
$GPGSV,3,1,10,24,65,172,50,15,59,052,50,23,55,314,50,18,52,235,50,1*64
$GPGSV,3,2,10,13,28,058,46,05,22,121,45,10,21,307,44,28,12,063,42,1*69
$GPGSV,3,3,10,14,07,045,42,27,01,309,,1*6E
$GNRMC,000100.997785,A,4059.6622,N,12409.4926,E,15093.166,347.4,010122,,,A*48
$GNVTG,347.4,T,,M,15093.166,N,27952.543,K,A*11
$GNZDA,000100.997785,01,01,2022,00,00*76
$GNGGA,000101.997789,4103.5415,N,12408.3476,E,1,08,1.1,352176.1,M,14.4,M,,0000*45
$GNGLL,4103.5415,N,12408.3476,E,000101.997789,A,A*7C
$GPGSA,A,3,10,05,13,14,15,18,24,23,,,,,2.0,1.1,1.6,1*23
$GNRMC,000101.997789,A,4103.5415,N,12408.3476,E,15093.277,347.4,010122,,,A*43
$GNVTG,347.4,T,,M,15093.277,N,27952.750,K,A*12
$GNZDA,000101.997789,01,01,2022,00,00*7B
$GNGGA,000102.997792,4107.4209,N,12407.2009,E,1,08,1.1,352170.1,M,14.3,M,,0000*41
$GNGLL,4107.4209,N,12407.2009,E,000102.997792,A,A*79
$GPGSA,A,3,10,05,13,14,15,18,24,23,,,,,2.0,1.1,1.6,1*23
$GNRMC,000102.997792,A,4107.4209,N,12407.2009,E,15093.398,347.4,010122,,,A*46
$GNVTG,347.4,T,,M,15093.398,N,27952.975,K,A*1B
$GNZDA,000102.997792,01,01,2022,00,00*72
$GNGGA,000103.997795,4111.2999,N,12406.0521,E,1,08,1.1,352163.2,M,14.1,M,,0000*4B
$GNGLL,4111.2999,N,12406.0521,E,000103.997795,A,A*70
$GPGSA,A,3,10,05,13,14,15,18,24,23,,,,,2.0,1.1,1.6,1*23
$GPGSV,3,1,10,24,65,172,50,15,59,052,50,23,55,314,49,18,52,235,50,1*6C
$GPGSV,3,2,10,13,28,058,46,05,22,121,45,10,21,307,44,28,12,063,42,1*69
$GPGSV,3,3,10,14,07,045,42,27,01,309,,1*6E
$GNRMC,000103.997795,A,4111.2999,N,12406.0521,E,15093.512,347.4,010122,,,A*4B
$GNVTG,347.4,T,,M,15093.512,N,27953.184,K,A*18
$GNZDA,000103.997795,01,01,2022,00,00*74
$GNGGA,000104.997799,4115.1789,N,12404.9016,E,1,08,1.1,352157.6,M,14.0,M,,0000*40
$GNGLL,4115.1789,N,12404.9016,E,000104.997799,A,A*79
$GPGSA,A,3,10,05,13,14,15,18,24,23,,,,,2.0,1.1,1.6,1*23
$GNRMC,000104.997799,A,4115.1789,N,12404.9016,E,15093.681,347.4,010122,,,A*4B
$GNVTG,347.4,T,,M,15093.681,N,27953.496,K,A*17
$GNZDA,000104.997799,01,01,2022,00,00*7F
$GNGGA,000105.997802,4119.0576,N,12403.7495,E,1,08,1.1,352152.3,M,13.9,M,,0000*4B
$GNGLL,4119.0576,N,12403.7495,E,000105.997802,A,A*7C
$GPGSA,A,3,10,05,13,14,15,18,24,23,,,,,2.0,1.1,1.6,1*23
$GNRMC,000105.997802,A,4119.0576,N,12403.7495,E,15093.711,347.4,010122,,,A*46
$GNVTG,347.4,T,,M,15093.711,N,27953.553,K,A*17
$GNZDA,000105.997802,01,01,2022,00,00*73
$GNGGA,000106.997805,4122.9364,N,12402.5956,E,1,08,1.1,352146.6,M,13.8,M,,0000*4B
$GNGLL,4122.9364,N,12402.5956,E,000106.997805,A,A*7D
$GPGSA,A,3,10,05,13,14,15,18,24,23,,,,,2.0,1.1,1.6,1*23
$GPGSV,3,1,10,24,64,172,50,15,59,053,50,23,55,313,50,18,52,234,49,1*6A
$GPGSV,3,2,10,13,28,058,46,05,22,121,45,10,21,307,44,28,12,063,42,1*69
$GPGSV,3,3,10,14,07,045,42,27,01,309,,1*6E
$GNRMC,000106.997805,A,4122.9364,N,12402.5956,E,15093.858,347.4,010122,,,A*45
$GNVTG,347.4,T,,M,15093.858,N,27953.826,K,A*1A
$GNZDA,000106.997805,01,01,2022,00,00*77
$GNGGA,000107.997809,4126.8151,N,12401.4399,E,1,08,1.1,352140.2,M,13.7,M,,0000*41
$GNGLL,4126.8151,N,12401.4399,E,000107.997809,A,A*7A
$GPGSA,A,3,10,05,13,14,15,18,24,23,,,,,2.0,1.1,1.6,1*23
$GNRMC,000107.997809,A,4126.8151,N,12401.4399,E,15093.963,347.4,010122,,,A*4B
$GNVTG,347.4,T,,M,15093.963,N,27954.020,K,A*1A
$GNZDA,000107.997809,01,01,2022,00,00*7A
$GNGGA,000108.997812,4130.6937,N,12400.2824,E,1,08,1.1,352134.9,M,13.6,M,,0000*46
$GNGLL,4130.6937,N,12400.2824,E,000108.997812,A,A*74
$GPGSA,A,3,10,05,13,14,15,18,24,23,,,,,1.9,1.1,1.6,1*29
$GNRMC,000108.997812,A,4130.6937,N,12400.2824,E,15094.076,347.4,010122,,,A*4F
$GNVTG,347.4,T,,M,15094.076,N,27954.229,K,A*1B
$GNZDA,000108.997812,01,01,2022,00,00*7F
$GNGGA,000109.997815,4134.5718,N,12359.1229,E,1,08,1.1,352129.5,M,13.5,M,,0000*48
$GNGLL,4134.5718,N,12359.1229,E,000109.997815,A,A*79
$GPGSA,A,3,10,05,13,14,15,18,24,23,,,,,1.9,1.1,1.6,1*29
$GPGSV,3,1,10,24,64,172,50,15,59,053,50,23,55,313,50,18,52,234,50,1*62
$GPGSV,3,2,10,13,28,059,46,05,22,121,45,10,21,307,44,28,12,063,42,1*68
$GPGSV,3,3,10,14,08,045,42,27,01,309,41,1*64
$GNRMC,000109.997815,A,4134.5718,N,12359.1229,E,15094.195,347.3,010122,,,A*49
$GNVTG,347.3,T,,M,15094.195,N,27954.449,K,A*10
$GNZDA,000109.997815,01,01,2022,00,00*79
$GNGGA,000110.997819,4138.4500,N,12357.9618,E,1,08,1.1,352123.5,M,13.3,M,,0000*46
$GNGLL,4138.4500,N,12357.9618,E,000110.997819,A,A*7B
$GPGSA,A,3,10,05,13,14,15,18,24,23,,,,,1.9,1.1,1.6,1*29
$GNRMC,000110.997819,A,4138.4500,N,12357.9618,E,15094.308,347.3,010122,,,A*4D
$GNVTG,347.3,T,,M,15094.308,N,27954.658,K,A*14
$GNZDA,000110.997819,01,01,2022,00,00*7D
$GNGGA,000111.997822,4142.3283,N,12356.7989,E,1,08,1.1,352117.0,M,13.2,M,,0000*42
$GNGLL,4142.3283,N,12356.7989,E,000111.997822,A,A*7C
$GPGSA,A,3,10,05,13,14,15,18,24,23,,,,,1.9,1.1,1.6,1*29
$GNRMC,000111.997822,A,4142.3283,N,12356.7989,E,15094.405,347.3,010122,,,A*40
$GNVTG,347.3,T,,M,15094.405,N,27954.838,K,A*16
$GNZDA,000111.997822,01,01,2022,00,00*74
$GNGGA,000112.997826,4146.2065,N,12355.6342,E,1,08,1.1,352111.7,M,13.1,M,,0000*47
$GNGLL,4146.2065,N,12355.6342,E,000112.997826,A,A*7B
$GPGSA,A,3,10,05,13,14,15,18,24,23,,,,,1.9,1.1,1.6,1*29
$GPGSV,3,1,10,24,64,172,50,15,59,054,50,23,56,313,50,18,52,234,49,1*6E
$GPGSV,3,2,10,13,28,059,46,10,22,306,44,05,22,121,45,28,12,063,42,1*6A
$GPGSV,3,3,10,14,08,045,42,27,02,309,41,1*67
$GNRMC,000112.997826,A,4146.2065,N,12355.6342,E,15094.548,347.3,010122,,,A*4F
$GNVTG,347.3,T,,M,15094.548,N,27955.104,K,A*19
$GNZDA,000112.997826,01,01,2022,00,00*73
$GNGGA,000113.997828,4150.0843,N,12354.4674,E,1,08,1.1,352107.1,M,13.0,M,,0000*42
$GNGLL,4150.0843,N,12354.4674,E,000113.997828,A,A*7E
$GPGSA,A,3,10,05,13,14,15,18,24,23,,,,,1.9,1.1,1.6,1*29
$GNRMC,000113.997828,A,4150.0843,N,12354.4674,E,15094.649,347.3,010122,,,A*48
$GNVTG,347.3,T,,M,15094.649,N,27955.291,K,A*14
$GNZDA,000113.997828,01,01,2022,00,00*7C
$GNGGA,000114.997832,4153.9620,N,12353.2991,E,1,08,1.1,352101.2,M,12.9,M,,0000*47
$GNGLL,4153.9620,N,12353.2991,E,000114.997832,A,A*76
$GPGSA,A,3,10,05,13,14,15,18,24,23,,,,,1.9,1.1,1.6,1*29
$GNRMC,000114.997832,A,4153.9620,N,12353.2991,E,15094.756,347.3,010122,,,A*4F
$GNVTG,347.3,T,,M,15094.756,N,27955.488,K,A*15
$GNZDA,000114.997832,01,01,2022,00,00*70
$GNGGA,000115.997835,4157.8395,N,12352.1284,E,1,08,1.1,352094.2,M,12.8,M,,0000*4E
$GNGLL,4157.8395,N,12352.1284,E,000115.997835,A,A*73
$GPGSA,A,3,10,05,13,14,15,18,24,23,,,,,1.9,1.1,1.6,1*29
$GPGSV,3,1,10,24,64,172,50,15,59,054,50,23,56,313,50,18,52,233,49,1*69
$GPGSV,3,2,10,13,28,059,46,10,22,306,44,05,21,121,45,28,12,063,42,1*69
$GPGSV,3,3,10,14,08,045,42,27,02,309,42,1*64
$GNRMC,000115.997835,A,4157.8395,N,12352.1284,E,15094.876,347.3,010122,,,A*47
$GNVTG,347.3,T,,M,15094.876,N,27955.711,K,A*1B
$GNZDA,000115.997835,01,01,2022,00,00*76
$GNGGA,000116.997837,4201.7173,N,12350.9562,E,1,08,1.1,352088.7,M,12.7,M,,0000*48
$GNGLL,4201.7173,N,12350.9562,E,000116.997837,A,A*72
$GPGSA,A,3,10,05,13,14,15,18,24,23,,,,,1.9,1.1,1.6,1*29
$GNRMC,000116.997837,A,4201.7173,N,12350.9562,E,15094.984,347.3,010122,,,A*4A
$GNVTG,347.3,T,,M,15094.984,N,27955.910,K,A*18
$GNZDA,000116.997837,01,01,2022,00,00*77
$GNGGA,000117.997843,4205.5947,N,12349.7820,E,1,08,1.1,352083.8,M,12.5,M,,0000*48
$GNGLL,4205.5947,N,12349.7820,E,000117.997843,A,A*74
$GPGSA,A,3,10,05,13,14,15,18,24,23,,,,,1.9,1.1,1.6,1*29
$GNRMC,000117.997843,A,4205.5947,N,12349.7820,E,15095.098,347.3,010122,,,A*49
$GNVTG,347.3,T,,M,15095.098,N,27956.121,K,A*14
$GNZDA,000117.997843,01,01,2022,00,00*75
$GNGGA,000118.997845,4209.4718,N,12348.6059,E,1,08,1.1,352078.4,M,12.4,M,,0000*47
$GNGLL,4209.4718,N,12348.6059,E,000118.997845,A,A*72
$GPGSA,A,3,10,05,13,14,15,18,24,23,,,,,1.9,1.1,1.6,1*29
$GPGSV,3,1,10,24,63,172,50,15,59,055,50,23,56,312,50,18,52,233,49,1*6E
$GPGSV,3,2,10,13,28,059,46,10,22,306,44,05,21,121,45,28,12,064,42,1*6E
$GPGSV,3,3,10,14,08,045,42,27,02,309,41,1*67
$GNRMC,000118.997845,A,4209.4718,N,12348.6059,E,15095.227,347.3,010122,,,A*49
$GNVTG,347.3,T,,M,15095.227,N,27956.359,K,A*1F
$GNZDA,000118.997845,01,01,2022,00,00*7C
$GNGGA,000119.997849,4213.3492,N,12347.4280,E,1,08,1.1,352072.3,M,12.3,M,,0000*46
$GNGLL,4213.3492,N,12347.4280,E,000119.997849,A,A*79
$GPGSA,A,3,10,05,13,14,15,18,24,23,,,,,1.9,1.1,1.6,1*29
$GNRMC,000119.997849,A,4213.3492,N,12347.4280,E,15095.325,347.3,010122,,,A*41
$GNVTG,347.3,T,,M,15095.325,N,27956.543,K,A*11
$GNZDA,000119.997849,01,01,2022,00,00*71
$GNGGA,000120.997852,4217.2261,N,12346.2481,E,1,08,1.1,352066.8,M,12.2,M,,0000*46
$GNGLL,4217.2261,N,12346.2481,E,000120.997852,A,A*76
$GPGSA,A,3,10,05,13,14,15,18,24,23,,,,,1.9,1.1,1.6,1*29
$GNRMC,000120.997852,A,4217.2261,N,12346.2481,E,15095.441,347.3,010122,,,A*4B
$GNVTG,347.3,T,,M,15095.441,N,27956.758,K,A*1C
$GNZDA,000120.997852,01,01,2022,00,00*71
$GNGGA,000121.997854,4221.1030,N,12345.0663,E,1,08,1.1,352061.3,M,12.1,M,,0000*41
$GNGLL,4221.1030,N,12345.0663,E,000121.997854,A,A*7E
$GPGSA,A,3,10,05,13,14,15,18,24,23,,,,,1.9,1.1,1.6,1*29
$GPGSV,3,1,10,24,63,172,50,15,59,055,50,23,56,312,50,18,52,232,49,1*6F
$GPGSV,3,2,10,13,28,059,46,10,22,306,44,05,21,121,45,28,12,064,42,1*6E
$GPGSV,3,3,10,14,08,045,42,27,02,309,41,1*67
$GNRMC,000121.997854,A,4221.1030,N,12345.0663,E,15095.563,347.3,010122,,,A*42
$GNVTG,347.3,T,,M,15095.563,N,27956.982,K,A*14
$GNZDA,000121.997854,01,01,2022,00,00*76
$GNGGA,000122.997858,4224.9797,N,12343.8826,E,1,08,1.1,352055.2,M,12.0,M,,0000*4F
$GNGLL,4224.9797,N,12343.8826,E,000122.997858,A,A*77
$GPGSA,A,3,10,05,13,14,15,18,24,23,,,,,1.9,1.1,1.6,1*29
$GNRMC,000122.997858,A,4224.9797,N,12343.8826,E,15095.688,347.2,010122,,,A*4C
$GNVTG,347.2,T,,M,15095.688,N,27957.215,K,A*17
$GNZDA,000122.997858,01,01,2022,00,00*79
$GNGGA,000123.997862,4228.8565,N,12342.6971,E,1,08,1.1,352048.6,M,11.9,M,,0000*4B
$GNGLL,4228.8565,N,12342.6971,E,000123.997862,A,A*71
$GPGSA,A,3,10,05,13,14,15,18,24,23,,,,,1.9,1.1,1.6,1*29
$GNRMC,000123.997862,A,4228.8565,N,12342.6971,E,15095.776,347.2,010122,,,A*4A
$GNVTG,347.2,T,,M,15095.776,N,27957.377,K,A*12
$GNZDA,000123.997862,01,01,2022,00,00*71
$GNGGA,000124.997866,4232.7329,N,12341.5095,E,1,08,1.1,352043.7,M,11.7,M,,0000*45
$GNGLL,4232.7329,N,12341.5095,E,000124.997866,A,A*7B
$GPGSA,A,3,10,05,13,14,15,18,24,23,,,,,1.9,1.1,1.6,1*29
$GPGSV,3,1,10,24,63,171,50,15,60,055,50,23,57,312,50,18,52,232,49,1*67
$GPGSV,3,2,10,13,29,059,46,10,22,306,44,05,21,121,45,28,12,064,42,1*6F
$GPGSV,3,3,10,14,08,045,42,27,02,309,41,1*67
$GNRMC,000124.997866,A,4232.7329,N,12341.5095,E,15095.906,347.2,010122,,,A*49
$GNVTG,347.2,T,,M,15095.906,N,27957.619,K,A*16
$GNZDA,000124.997866,01,01,2022,00,00*72
$GNGGA,000125.997868,4236.6093,N,12340.3201,E,1,08,1.1,352038.2,M,11.6,M,,0000*4D
$GNGLL,4236.6093,N,12340.3201,E,000125.997868,A,A*7B
$GPGSA,A,3,10,05,13,14,15,18,24,23,,,,,1.9,1.1,1.6,1*29
$GNRMC,000125.997868,A,4236.6093,N,12340.3201,E,15096.014,347.2,010122,,,A*40
$GNVTG,347.2,T,,M,15096.014,N,27957.816,K,A*1E
$GNZDA,000125.997868,01,01,2022,00,00*7D
$GNGGA,000126.997871,4240.4858,N,12339.1289,E,1,08,1.1,352032.3,M,11.5,M,,0000*4E
$GNGLL,4240.4858,N,12339.1289,E,000126.997871,A,A*70
$GPGSA,A,3,10,05,13,14,15,18,24,23,,,,,1.9,1.1,1.6,1*29
$GNRMC,000126.997871,A,4240.4858,N,12339.1289,E,15096.135,347.2,010122,,,A*49
$GNVTG,347.2,T,,M,15096.135,N,27958.041,K,A*19
$GNZDA,000126.997871,01,01,2022,00,00*76
$GNGGA,000127.997875,4244.3619,N,12337.9353,E,1,08,1.1,352026.8,M,11.4,M,,0000*4C
$GNGLL,4244.3619,N,12337.9353,E,000127.997875,A,A*7D
$GPGSA,A,3,10,05,13,14,15,18,24,23,,,,,1.9,1.1,1.6,1*29
$GPGSV,3,1,10,24,63,171,50,15,60,056,50,23,57,312,50,18,51,232,49,1*67
$GPGSV,3,2,10,13,29,059,46,10,22,306,44,05,21,121,45,28,12,064,42,1*6F
$GPGSV,3,3,10,14,08,045,42,27,02,308,41,1*66
$GNRMC,000127.997875,A,4244.3619,N,12337.9353,E,15096.250,347.2,010122,,,A*44
$GNVTG,347.2,T,,M,15096.250,N,27958.256,K,A*1D
$GNZDA,000127.997875,01,01,2022,00,00*73
$GNGGA,000128.997881,4248.2379,N,12336.7400,E,1,08,1.1,352022.2,M,11.3,M,,0000*41
$GNGLL,4248.2379,N,12336.7400,E,000128.997881,A,A*79
$GPGSA,A,3,10,05,13,14,15,18,24,23,,,,,1.9,1.1,1.6,1*29
$GNRMC,000128.997881,A,4248.2379,N,12336.7400,E,15096.344,347.2,010122,,,A*44
$GNVTG,347.2,T,,M,15096.344,N,27958.428,K,A*16
$GNZDA,000128.997881,01,01,2022,00,00*77
$GNGGA,000129.997881,4252.1137,N,12335.5424,E,1,08,1.1,352016.1,M,11.2,M,,0000*42
$GNGLL,4252.1137,N,12335.5424,E,000129.997881,A,A*7F
$GPGSA,A,3,10,05,13,14,15,18,24,23,,,,,1.9,1.1,1.6,1*29
$GNRMC,000129.997881,A,4252.1137,N,12335.5424,E,15096.474,347.2,010122,,,A*46
$GNVTG,347.2,T,,M,15096.474,N,27958.670,K,A*1D
$GNZDA,000129.997881,01,01,2022,00,00*76
$GNGGA,000130.997885,4255.9896,N,12334.3437,E,1,09,1.0,352011.1,M,11.1,M,,0000*42
$GNGLL,4255.9896,N,12334.3437,E,000130.997885,A,A*7B
$GPGSA,A,3,10,05,27,13,14,15,18,24,23,,,,1.6,1.0,1.3,1*27
$GPGSV,3,1,10,24,62,171,50,15,60,056,50,23,57,311,50,18,51,231,49,1*66
$GPGSV,3,2,10,13,29,060,46,10,23,306,44,05,21,121,45,28,12,064,42,1*64
$GPGSV,3,3,10,14,08,045,42,27,03,308,41,1*67
$GNRMC,000130.997885,A,4255.9896,N,12334.3437,E,15096.591,347.2,010122,,,A*48
$GNVTG,347.2,T,,M,15096.591,N,27958.887,K,A*11
$GNZDA,000130.997885,01,01,2022,00,00*7A
$GNGGA,000131.997889,4259.8651,N,12333.1425,E,1,09,1.0,352005.8,M,11.0,M,,0000*4C
$GNGLL,4259.8651,N,12333.1425,E,000131.997889,A,A*78
$GPGSA,A,3,10,05,27,13,14,15,18,24,23,,,,1.6,1.0,1.3,1*27
$GNRMC,000131.997889,A,4259.8651,N,12333.1425,E,15096.694,347.2,010122,,,A*4D
$GNVTG,347.2,T,,M,15096.694,N,27959.078,K,A*1E
$GNZDA,000131.997889,01,01,2022,00,00*77
$GNGGA,000132.997890,4303.7404,N,12331.9387,E,1,09,1.0,351998.9,M,10.8,M,,0000*47
$GNGLL,4303.7404,N,12331.9387,E,000132.997890,A,A*75
$GPGSA,A,3,10,05,27,13,14,15,18,24,23,,,,1.6,1.0,1.3,1*27
$GNRMC,000132.997890,A,4303.7404,N,12331.9387,E,15096.811,347.2,010122,,,A*43
$GNVTG,347.2,T,,M,15096.811,N,27959.293,K,A*1A
$GNZDA,000132.997890,01,01,2022,00,00*7C
$GNGGA,000133.997894,4307.6162,N,12330.7337,E,1,09,1.0,351993.5,M,10.7,M,,0000*4E
$GNGLL,4307.6162,N,12330.7337,E,000133.997894,A,A*74
$GPGSA,A,3,10,05,27,13,14,15,18,24,23,,,,1.6,1.0,1.3,1*27
$GPGSV,3,1,10,24,62,171,50,15,60,057,50,23,57,311,50,18,51,231,49,1*67
$GPGSV,3,2,10,13,29,060,46,10,23,306,44,05,20,121,45,28,13,064,42,1*64
$GPGSV,3,3,10,14,08,045,42,27,03,308,41,1*67
$GNRMC,000133.997894,A,4307.6162,N,12330.7337,E,15096.912,347.2,010122,,,A*40
$GNVTG,347.2,T,,M,15096.912,N,27959.480,K,A*1C
$GNZDA,000133.997894,01,01,2022,00,00*79
$GNGGA,000134.997898,4311.4915,N,12329.5263,E,1,09,1.0,351987.3,M,10.6,M,,0000*40
$GNGLL,4311.4915,N,12329.5263,E,000134.997898,A,A*78
$GPGSA,A,3,10,05,27,13,14,15,18,24,23,,,,1.6,1.0,1.3,1*27
$GNRMC,000134.997898,A,4311.4915,N,12329.5263,E,15097.058,347.2,010122,,,A*4A
$GNVTG,347.2,T,,M,15097.058,N,27959.750,K,A*14
$GNZDA,000134.997898,01,01,2022,00,00*72
$GNGGA,000135.997898,4315.3664,N,12328.3171,E,1,09,1.0,351982.5,M,10.5,M,,0000*4C
$GNGLL,4315.3664,N,12328.3171,E,000135.997898,A,A*74
$GPGSA,A,3,10,05,27,13,14,15,18,24,23,,,,1.6,1.0,1.3,1*27
$GNRMC,000135.997898,A,4315.3664,N,12328.3171,E,15097.150,347.1,010122,,,A*4C
$GNVTG,347.1,T,,M,15097.150,N,27959.922,K,A*15
$GNZDA,000135.997898,01,01,2022,00,00*73
$GNGGA,000136.997906,4319.2413,N,12327.1055,E,1,09,1.0,351976.4,M,10.4,M,,0000*47
$GNGLL,4319.2413,N,12327.1055,E,000136.997906,A,A*74
$GPGSA,A,3,10,05,27,13,14,15,18,24,23,,,,1.6,1.0,1.3,1*27
$GPGSV,3,1,10,24,62,171,50,15,60,057,50,23,57,311,50,18,51,230,49,1*66
$GPGSV,3,2,10,13,29,060,46,10,23,305,44,05,20,122,45,28,13,064,42,1*64
$GPGSV,3,3,10,14,09,045,42,27,03,308,41,1*66
$GNRMC,000136.997906,A,4319.2413,N,12327.1055,E,15097.269,347.1,010122,,,A*45
$GNVTG,347.1,T,,M,15097.269,N,27960.141,K,A*1B
$GNZDA,000136.997906,01,01,2022,00,00*76
$GNGGA,000137.997910,4323.1162,N,12325.8922,E,1,09,1.0,351971.6,M,10.3,M,,0000*48
$GNGLL,4323.1162,N,12325.8922,E,000137.997910,A,A*79
$GPGSA,A,3,10,05,27,13,14,15,18,24,23,,,,1.6,1.0,1.3,1*27
$GNRMC,000137.997910,A,4323.1162,N,12325.8922,E,15097.384,347.1,010122,,,A*4A
$GNVTG,347.1,T,,M,15097.384,N,27960.355,K,A*1E
$GNZDA,000137.997910,01,01,2022,00,00*70
$GNGGA,000138.997910,4326.9906,N,12324.6766,E,1,09,1.0,351966.3,M,10.2,M,,0000*43
$GNGLL,4326.9906,N,12324.6766,E,000138.997910,A,A*70
$GPGSA,A,3,10,05,27,13,14,15,18,24,23,,,,1.6,1.0,1.3,1*27
$GNRMC,000138.997910,A,4326.9906,N,12324.6766,E,15097.499,347.1,010122,,,A*48
$GNVTG,347.1,T,,M,15097.499,N,27960.568,K,A*1D
$GNZDA,000138.997910,01,01,2022,00,00*7F
$GNGGA,000139.997913,4330.8652,N,12323.4588,E,1,09,1.0,351960.1,M,10.1,M,,0000*49
$GNGLL,4330.8652,N,12323.4588,E,000139.997913,A,A*7D
$GPGSA,A,3,10,05,27,13,14,15,18,24,23,,,,1.6,1.0,1.3,1*27
$GPGSV,3,1,10,24,62,171,50,15,60,057,50,23,58,310,50,18,51,230,49,1*68
$GPGSV,3,2,10,13,29,060,46,10,23,305,44,05,20,122,45,28,13,064,42,1*64
$GPGSV,3,3,10,14,09,045,42,27,03,308,41,1*66
$GNRMC,000139.997913,A,4330.8652,N,12323.4588,E,15097.611,347.1,010122,,,A*47
$GNVTG,347.1,T,,M,15097.611,N,27960.775,K,A*11
$GNZDA,000139.997913,01,01,2022,00,00*7D
$GNGGA,000140.997917,4334.7399,N,12322.2392,E,1,09,1.0,351954.7,M,9.9,M,,0000*71
$GNGLL,4334.7399,N,12322.2392,E,000140.997917,A,A*74
$GPGSA,A,3,10,05,27,13,14,15,18,24,23,,,,1.6,1.0,1.3,1*27
$GNRMC,000140.997917,A,4334.7399,N,12322.2392,E,15097.730,347.1,010122,,,A*4C
$GNVTG,347.1,T,,M,15097.730,N,27960.996,K,A*10
$GNZDA,000140.997917,01,01,2022,00,00*77
$GNGGA,000141.997921,4338.6144,N,12321.0175,E,1,09,1.0,351949.5,M,9.8,M,,0000*7F
$GNGLL,4338.6144,N,12321.0175,E,000141.997921,A,A*75
$GPGSA,A,3,10,05,27,13,14,15,18,24,23,,,,1.6,1.0,1.3,1*27
$GNRMC,000141.997921,A,4338.6144,N,12321.0175,E,15097.827,347.1,010122,,,A*44
$GNVTG,347.1,T,,M,15097.827,N,27961.176,K,A*1E
$GNZDA,000141.997921,01,01,2022,00,00*73
$GNGGA,000142.997925,4342.4882,N,12319.7936,E,1,09,1.0,351943.6,M,9.7,M,,0000*71
$GNGLL,4342.4882,N,12319.7936,E,000142.997925,A,A*7D
$GPGSA,A,3,10,05,27,13,14,15,18,24,23,,,,1.6,1.0,1.3,1*27
$GPGSV,3,1,10,24,62,171,50,15,60,058,50,23,58,310,50,18,51,230,49,1*67
$GPGSV,3,2,10,13,29,060,46,10,23,305,44,05,20,122,44,28,13,064,42,1*65
$GPGSV,3,3,10,14,09,045,42,27,03,308,41,1*66
$GNRMC,000142.997925,A,4342.4882,N,12319.7936,E,15097.963,347.1,010122,,,A*4D
$GNVTG,347.1,T,,M,15097.963,N,27961.428,K,A*11
$GNZDA,000142.997925,01,01,2022,00,00*74
$GNGGA,000143.997929,4346.3625,N,12318.5679,E,1,09,1.0,351938.1,M,9.6,M,,0000*71
$GNGLL,4346.3625,N,12318.5679,E,000143.997929,A,A*77
$GPGSA,A,3,10,05,27,13,14,15,18,24,23,,,,1.6,1.0,1.3,1*27
$GNRMC,000143.997929,A,4346.3625,N,12318.5679,E,15098.068,347.1,010122,,,A*4A
$GNVTG,347.1,T,,M,15098.068,N,27961.623,K,A*15
$GNZDA,000143.997929,01,01,2022,00,00*79
$GNGGA,000144.997932,4350.2364,N,12317.3401,E,1,09,1.0,351932.4,M,9.5,M,,0000*72
$GNGLL,4350.2364,N,12317.3401,E,000144.997932,A,A*78
$GPGSA,A,3,10,05,27,13,14,15,18,24,23,,,,1.6,1.0,1.3,1*27
$GNRMC,000144.997932,A,4350.2364,N,12317.3401,E,15098.178,347.1,010122,,,A*45
$GNVTG,347.1,T,,M,15098.178,N,27961.824,K,A*1C
$GNZDA,000144.997932,01,01,2022,00,00*74
$GNGGA,000145.997936,4354.1100,N,12316.1100,E,1,09,1.0,351927.3,M,9.4,M,,0000*75
$GNGLL,4354.1100,N,12316.1100,E,000145.997936,A,A*7D
$GPGSA,A,3,10,05,27,13,14,15,18,24,23,,,,1.6,1.0,1.3,1*27
$GPGSV,3,1,10,24,61,171,50,15,60,058,50,23,58,310,50,18,51,229,49,1*6C
$GPGSV,3,2,10,13,29,060,46,10,24,305,44,05,20,122,44,28,13,064,42,1*62
$GPGSV,3,3,10,14,09,045,42,27,03,308,41,1*66
$GNRMC,000145.997936,A,4354.1100,N,12316.1100,E,15098.287,347.1,010122,,,A*43
$GNVTG,347.1,T,,M,15098.287,N,27962.027,K,A*17
$GNZDA,000145.997936,01,01,2022,00,00*71
$GNGGA,000146.997936,4357.9834,N,12314.8778,E,1,09,1.0,351921.7,M,9.3,M,,0000*74
$GNGLL,4357.9834,N,12314.8778,E,000146.997936,A,A*79
$GPGSA,A,3,10,05,27,13,14,15,18,24,23,,,,1.6,1.0,1.3,1*27
$GNRMC,000146.997936,A,4357.9834,N,12314.8778,E,15098.422,347.1,010122,,,A*4E
$GNVTG,347.1,T,,M,15098.422,N,27962.277,K,A*19
$GNZDA,000146.997936,01,01,2022,00,00*72
$GNGGA,000147.997940,4401.8571,N,12313.6434,E,1,09,1.0,351915.4,M,9.2,M,,0000*7A
$GNGLL,4401.8571,N,12313.6434,E,000147.997940,A,A*72
$GPGSA,A,3,10,05,27,13,14,15,18,24,23,,,,1.6,1.0,1.3,1*27
$GNRMC,000147.997940,A,4401.8571,N,12313.6434,E,15098.520,347.0,010122,,,A*47
$GNVTG,347.0,T,,M,15098.520,N,27962.459,K,A*11
$GNZDA,000147.997940,01,01,2022,00,00*72
$GNGGA,000148.997944,4405.7305,N,12312.4069,E,1,09,1.0,351909.6,M,9.1,M,,0000*7C
$GNGLL,4405.7305,N,12312.4069,E,000148.997944,A,A*78
$GPGSA,A,3,10,05,27,13,14,15,18,24,23,,,,1.6,1.0,1.3,1*27
$GPGSV,3,1,10,24,61,171,50,15,60,059,51,23,58,309,50,18,50,229,49,1*65
$GPGSV,3,2,10,13,29,060,46,10,24,305,44,05,20,122,44,28,13,064,42,1*62
$GPGSV,3,3,10,14,09,045,42,27,03,308,41,1*66
$GNRMC,000148.997944,A,4405.7305,N,12312.4069,E,15098.638,347.0,010122,,,A*47
$GNVTG,347.0,T,,M,15098.638,N,27962.678,K,A*1A
$GNZDA,000148.997944,01,01,2022,00,00*79
$GNGGA,000149.997948,4409.6036,N,12311.1683,E,1,09,1.0,351904.7,M,9.0,M,,0000*76
$GNGLL,4409.6036,N,12311.1683,E,000149.997948,A,A*7F
$GPGSA,A,3,10,05,27,13,14,15,18,24,23,,,,1.6,1.0,1.3,1*27
$GNRMC,000149.997948,A,4409.6036,N,12311.1683,E,15098.755,347.0,010122,,,A*4A
$GNVTG,347.0,T,,M,15098.755,N,27962.895,K,A*1D
$GNZDA,000149.997948,01,01,2022,00,00*74
$GNGGA,000150.997952,4413.4767,N,12309.9274,E,1,09,1.0,351899.4,M,8.8,M,,0000*7D
$GNGLL,4413.4767,N,12309.9274,E,000150.997952,A,A*7B
$GPGSA,A,3,10,05,27,13,14,15,18,24,23,,,,1.6,1.0,1.3,1*27
$GNRMC,000150.997952,A,4413.4767,N,12309.9274,E,15098.877,347.0,010122,,,A*41
$GNVTG,347.0,T,,M,15098.877,N,27963.121,K,A*15
$GNZDA,000150.997952,01,01,2022,00,00*77
$GNGGA,000151.997955,4417.3494,N,12308.6843,E,1,09,1.0,351893.8,M,8.7,M,,0000*7E
$GNGLL,4417.3494,N,12308.6843,E,000151.997955,A,A*71
$GPGSA,A,3,10,05,27,13,14,15,18,24,23,,,,1.6,1.0,1.3,1*27
$GPGSV,3,1,10,24,61,171,50,15,60,059,51,23,59,309,50,18,50,229,49,1*64
$GPGSV,3,2,10,13,29,061,46,10,24,305,44,05,19,122,43,28,13,064,42,1*6E
$GPGSV,3,3,10,14,09,045,42,27,04,308,41,1*61
$GNRMC,000151.997955,A,4417.3494,N,12308.6843,E,15098.975,347.0,010122,,,A*48
$GNVTG,347.0,T,,M,15098.975,N,27963.301,K,A*16
$GNZDA,000151.997955,01,01,2022,00,00*71
$GNGGA,000152.997959,4421.2222,N,12307.4388,E,1,09,1.0,351888.6,M,8.6,M,,0000*7A
$GNGLL,4421.2222,N,12307.4388,E,000152.997959,A,A*70
$GPGSA,A,3,10,05,27,13,14,15,18,24,23,,,,1.6,1.0,1.3,1*27
$GNRMC,000152.997959,A,4421.2222,N,12307.4388,E,15099.086,347.0,010122,,,A*4D
$GNVTG,347.0,T,,M,15099.086,N,27963.508,K,A*1D
$GNZDA,000152.997959,01,01,2022,00,00*7E
$GNGGA,000153.997959,4425.0950,N,12306.1917,E,1,09,1.0,351883.2,M,8.5,M,,0000*77
$GNGLL,4425.0950,N,12306.1917,E,000153.997959,A,A*71
$GPGSA,A,3,10,05,27,13,14,15,18,24,23,,,,1.6,1.0,1.3,1*27
$GNRMC,000153.997959,A,4425.0950,N,12306.1917,E,15099.221,347.0,010122,,,A*43
$GNVTG,347.0,T,,M,15099.221,N,27963.756,K,A*1B
$GNZDA,000153.997959,01,01,2022,00,00*7F
$GNGGA,000154.997963,4428.9675,N,12304.9421,E,1,09,1.0,351877.9,M,8.4,M,,0000*76
$GNGLL,4428.9675,N,12304.9421,E,000154.997963,A,A*71
$GPGSA,A,3,10,05,27,13,14,15,18,24,23,,,,1.6,1.0,1.3,1*27
$GPGSV,3,1,10,24,61,170,50,15,60,060,51,23,59,309,50,18,50,228,49,1*6E
$GPGSV,3,2,10,13,29,061,46,10,24,305,44,05,19,122,43,28,13,064,42,1*6E
$GPGSV,3,3,10,14,09,045,42,27,04,308,41,1*61
$GNRMC,000154.997963,A,4428.9675,N,12304.9421,E,15099.316,347.0,010122,,,A*46
$GNVTG,347.0,T,,M,15099.316,N,27963.934,K,A*14
$GNZDA,000154.997963,01,01,2022,00,00*71
$GNGGA,000155.997967,4432.8395,N,12303.6901,E,1,09,1.0,351872.5,M,8.3,M,,0000*7B
$GNGLL,4432.8395,N,12303.6901,E,000155.997967,A,A*72
$GPGSA,A,3,10,05,27,13,14,15,18,24,23,,,,1.6,1.0,1.3,1*27
$GNRMC,000155.997967,A,4432.8395,N,12303.6901,E,15099.425,347.0,010122,,,A*42
$GNVTG,347.0,T,,M,15099.425,N,27964.135,K,A*1D
$GNZDA,000155.997967,01,01,2022,00,00*74
$GNGGA,000156.997971,4436.7116,N,12302.4359,E,1,09,1.0,351866.2,M,8.2,M,,0000*7A
$GNGLL,4436.7116,N,12302.4359,E,000156.997971,A,A*70
$GPGSA,A,3,10,05,27,13,14,15,18,24,23,,,,1.6,1.0,1.3,1*27
$GNRMC,000156.997971,A,4436.7116,N,12302.4359,E,15099.568,347.0,010122,,,A*48
$GNVTG,347.0,T,,M,15099.568,N,27964.400,K,A*16
$GNZDA,000156.997971,01,01,2022,00,00*70
$GNGGA,000157.997974,4440.5837,N,12301.1797,E,1,09,1.0,351860.4,M,8.1,M,,0000*74
$GNGLL,4440.5837,N,12301.1797,E,000157.997974,A,A*7D
$GPGSA,A,3,10,05,27,13,14,15,18,24,23,,,,1.6,1.0,1.3,1*27
$GPGSV,3,1,10,24,60,170,50,15,60,060,51,23,59,308,50,18,50,228,49,1*6E
$GPGSV,3,2,10,13,29,061,46,10,24,304,44,05,19,122,43,28,13,064,42,1*6F
$GPGSV,3,3,10,14,09,045,42,27,04,307,41,1*6E
$GNRMC,000157.997974,A,4440.5837,N,12301.1797,E,15099.646,347.0,010122,,,A*4A
$GNVTG,347.0,T,,M,15099.646,N,27964.545,K,A*19
$GNZDA,000157.997974,01,01,2022,00,00*74
$GNGGA,000158.997978,4444.4555,N,12259.9209,E,1,09,1.0,351854.8,M,8.0,M,,0000*77
$GNGLL,4444.4555,N,12259.9209,E,000158.997978,A,A*74
$GPGSA,A,3,10,05,27,13,14,15,18,24,23,,,,1.6,1.0,1.3,1*27
$GNRMC,000158.997978,A,4444.4555,N,12259.9209,E,15099.779,347.0,010122,,,A*4E
$GNVTG,347.0,T,,M,15099.779,N,27964.791,K,A*1F
$GNZDA,000158.997978,01,01,2022,00,00*77
$GNGGA,000159.997986,4448.3273,N,12258.6602,E,1,09,1.0,351850.2,M,7.9,M,,0000*76
$GNGLL,4448.3273,N,12258.6602,E,000159.997986,A,A*7D
$GPGSA,A,3,10,05,27,13,14,15,18,24,23,,,,1.6,1.0,1.3,1*27
$GNRMC,000159.997986,A,4448.3273,N,12258.6602,E,15099.891,346.9,010122,,,A*46
$GNVTG,346.9,T,,M,15099.891,N,27964.998,K,A*19
$GNZDA,000159.997986,01,01,2022,00,00*77
$GNGGA,000200.997983,4452.1991,N,12257.3971,E,1,09,1.0,351844.6,M,7.7,M,,0000*7C
$GNGLL,4452.1991,N,12257.3971,E,000200.997983,A,A*78
$GPGSA,A,3,10,05,27,13,14,15,18,24,23,,,,1.6,1.0,1.3,1*27
$GPGSV,3,1,10,24,60,170,50,15,60,061,51,23,59,308,50,18,50,227,49,1*60
$GPGSV,3,2,10,13,29,061,46,10,24,304,44,05,19,122,43,28,13,064,42,1*6F
$GPGSV,3,3,10,14,09,045,42,27,04,307,41,1*6E
$GNRMC,000200.997983,A,4452.1991,N,12257.3971,E,15100.012,346.9,010122,,,A*41
$GNVTG,346.9,T,,M,15100.012,N,27965.223,K,A*11
$GNZDA,000200.997983,01,01,2022,00,00*7D
$GNGGA,000201.997987,4456.0706,N,12256.1318,E,1,09,1.0,351839.6,M,7.6,M,,0000*71
$GNGLL,4456.0706,N,12256.1318,E,000201.997987,A,A*7E
$GPGSA,A,3,10,05,27,13,14,15,18,24,23,,,,1.6,1.0,1.3,1*27
$GNRMC,000201.997987,A,4456.0706,N,12256.1318,E,15100.118,346.9,010122,,,A*4C
$GNVTG,346.9,T,,M,15100.118,N,27965.418,K,A*14
$GNZDA,000201.997987,01,01,2022,00,00*78
$GNGGA,000202.997990,4459.9414,N,12254.8643,E,1,09,1.0,351834.0,M,7.5,M,,0000*7A
$GNGLL,4459.9414,N,12254.8643,E,000202.997990,A,A*7D
$GPGSA,A,3,10,05,27,13,14,15,18,24,23,,,,1.6,1.0,1.3,1*27
$GNRMC,000202.997990,A,4459.9414,N,12254.8643,E,15100.234,346.9,010122,,,A*42
$GNVTG,346.9,T,,M,15100.234,N,27965.635,K,A*14
$GNZDA,000202.997990,01,01,2022,00,00*7D
$GNGGA,000203.997993,4503.8129,N,12253.5948,E,1,09,1.0,351828.4,M,7.4,M,,0000*7A
$GNGLL,4503.8129,N,12253.5948,E,000203.997993,A,A*75
$GPGSA,A,3,10,05,27,13,14,15,18,24,23,,,,1.6,1.0,1.3,1*27
$GPGSV,3,1,10,23,60,308,50,24,60,170,50,15,60,061,51,18,50,227,49,1*6A
$GPGSV,3,2,10,13,29,061,46,10,25,304,44,05,19,122,43,28,13,064,42,1*6E
$GPGSV,3,3,10,14,09,045,42,27,04,307,41,1*6E
$GNRMC,000203.997993,A,4503.8129,N,12253.5948,E,15100.345,346.9,010122,,,A*4D
$GNVTG,346.9,T,,M,15100.345,N,27965.838,K,A*10
$GNZDA,000203.997993,01,01,2022,00,00*7F
$GNGGA,000204.997997,4507.6836,N,12252.3223,E,1,09,1.0,351823.4,M,7.3,M,,0000*79
$GNGLL,4507.6836,N,12252.3223,E,000204.997997,A,A*7A
$GPGSA,A,3,10,05,27,13,14,15,18,24,23,,,,1.6,1.0,1.3,1*27
$GNRMC,000204.997997,A,4507.6836,N,12252.3223,E,15100.473,346.9,010122,,,A*40
$GNVTG,346.9,T,,M,15100.473,N,27966.076,K,A*13
$GNZDA,000204.997997,01,01,2022,00,00*7C
$GNGGA,000205.998000,4511.5544,N,12251.0477,E,1,09,1.0,351818.6,M,7.2,M,,0000*70
$GNGLL,4511.5544,N,12251.0477,E,000205.998000,A,A*78
$GPGSA,A,3,10,05,27,13,14,15,18,24,23,,,,1.6,1.0,1.3,1*27
$GNRMC,000205.998000,A,4511.5544,N,12251.0477,E,15100.561,346.9,010122,,,A*40
$GNVTG,346.9,T,,M,15100.561,N,27966.238,K,A*19
$GNZDA,000205.998000,01,01,2022,00,00*75
$GNGGA,000206.998003,4515.4253,N,12249.7711,E,1,09,1.0,351813.0,M,7.1,M,,0000*77
$GNGLL,4515.4253,N,12249.7711,E,000206.998003,A,A*71
$GPGSA,A,3,10,05,27,13,14,15,18,24,23,,,,1.6,1.0,1.3,1*27
$GPGSV,3,1,11,23,60,307,50,24,60,170,49,15,60,061,51,18,50,227,49,1*6C
$GPGSV,3,2,11,13,29,061,46,10,25,304,44,05,18,122,43,28,13,064,42,1*6E
$GPGSV,3,3,11,14,10,045,42,27,04,307,41,08,00,336,,1*59
$GNRMC,000206.998003,A,4515.4253,N,12249.7711,E,15100.694,346.9,010122,,,A*40
$GNVTG,346.9,T,,M,15100.694,N,27966.486,K,A*13
$GNZDA,000206.998003,01,01,2022,00,00*75
$GNGGA,000207.998007,4519.2957,N,12248.4912,E,1,09,1.0,351806.2,M,7.0,M,,0000*7F
$GNGLL,4519.2957,N,12248.4912,E,000207.998007,A,A*7E
$GPGSA,A,3,10,05,27,13,14,15,18,24,23,,,,1.6,1.0,1.3,1*27
$GNRMC,000207.998007,A,4519.2957,N,12248.4912,E,15100.828,346.9,010122,,,A*46
$GNVTG,346.9,T,,M,15100.828,N,27966.734,K,A*10
$GNZDA,000207.998007,01,01,2022,00,00*70
$GNGGA,000208.998011,4523.1659,N,12247.2099,E,1,09,1.0,351801.7,M,6.9,M,,0000*75
$GNGLL,4523.1659,N,12247.2099,E,000208.998011,A,A*7E
$GPGSA,A,3,10,05,27,13,14,15,18,24,23,,,,1.6,1.0,1.3,1*27
$GNRMC,000208.998011,A,4523.1659,N,12247.2099,E,15100.943,346.9,010122,,,A*4A
$GNVTG,346.9,T,,M,15100.943,N,27966.947,K,A*16
$GNZDA,000208.998011,01,01,2022,00,00*78
$GNGGA,000209.998013,4527.0360,N,12245.9261,E,1,09,1.0,351795.7,M,6.8,M,,0000*73
$GNGLL,4527.0360,N,12245.9261,E,000209.998013,A,A*7B
$GPGSA,A,3,10,05,27,13,14,15,18,24,23,,,,1.6,1.0,1.3,1*27
$GPGSV,3,1,11,23,60,307,50,15,60,062,51,24,59,170,49,18,50,226,49,1*64
$GPGSV,3,2,11,13,29,061,46,10,25,304,44,05,18,122,43,28,13,064,42,1*6E
$GPGSV,3,3,11,14,10,045,42,27,04,307,41,08,00,336,,1*59
$GNRMC,000209.998013,A,4527.0360,N,12245.9261,E,15101.048,346.9,010122,,,A*4C
$GNVTG,346.9,T,,M,15101.048,N,27967.141,K,A*1A
$GNZDA,000209.998013,01,01,2022,00,00*7B
$GNGGA,000210.998017,4530.9061,N,12244.6397,E,1,09,1.0,351790.2,M,6.7,M,,0000*7B
$GNGLL,4530.9061,N,12244.6397,E,000210.998017,A,A*7C
$GPGSA,A,3,10,05,27,13,14,15,18,24,23,,,,1.6,1.0,1.3,1*27
$GNRMC,000210.998017,A,4530.9061,N,12244.6397,E,15101.156,346.8,010122,,,A*44
$GNVTG,346.8,T,,M,15101.156,N,27967.342,K,A*14
$GNZDA,000210.998017,01,01,2022,00,00*77
$GNGGA,000211.998020,4534.7762,N,12243.3511,E,1,09,1.0,351784.9,M,6.5,M,,0000*76
$GNGLL,4534.7762,N,12243.3511,E,000211.998020,A,A*7D
